~VERSION INFORMATION                                                           
 VERS.           2.0: CWLS Log ASCII Standard - Version 2.0                    
 WRAP.            NO: One Line per Depth Step                                  
~WELL INFORMATION                                                              
#MNEM.UNIT              DATA            DESCRIPTION OF MNEMONIC                
#-----------            ----            -----------------------                
 STRT.MORRA           900.0000              :Start Depth                           
 STOP.M          2147.0000              :Stop  Depth                           
 STEP.M             0.2000              :Step                                  
 NULL.              -99999.0            :Null Value                            
 COMP.     PETROLEO BRASILEIRO S/A      :Company                               
 ORIG.     SIGEO EXPORTACAO PERFIL      :Origem dos dados                      
 WELL.     7FU  0128  AL                :Well                                  
 FLD.                                   :Field                                 
 LOC.                                   :Location                              
 STAT.                                  :State                                 
 SRVC.                                  :Service Company                       
 DATE.                                  :Log Date                              
 API.      081150370200                 :API Code                              
 X.              815480.800000          :Surface X                             
 Y.              8917272.700000         :Surface Y                             
 HZCS.           UTM                    :Horizontal Coordinate System          
 MC.               39 W                 :Meridiano Central
 LATI.             -9.782647            :Latitude                              
 LONG.            -36.124445            :Longitude                             
 GDAT.           SIRGAS2000             :Geodetic Datum                        
 EKB.M            27.0000               :Elevation Kelly Bushing               
 EGL.M            22.0000               :GROUND ELEVATION                      
~CURVE INFORMATION                                                             
 DEPT.M		                            :Measured Depth                        
 DT.us/ft                               :DELTA-T (ALSO CALLED SLOWNESS OR INTERVAL TRANSIT TIME) 
 GR.gAPI                                :GAMMA RAY 
 NPHI.%                                 :THERMAL NEUTRON POROSITY (ORIGINAL RATIO METHOD) IN SELECTED LITHOLOGY 
 ILD.ohm.m                              :INDUCTION DEEP RESISTIVITY 
 SN.ohm.m                               :SHORT NORMAL RESISTIVITY 
 SP.mV                                  :SPONTANEOUS POTENTIAL 
 CALI.in                                :CALIPER 
 RHOB.g/cm3                             :BULK DENSITY 
 DRHO.g/cm3                             :BULK DENSITIY CORRECTION 
 MSFL.ohm.m                             :MICRO-SPHERICALLY-FOCUSED RESISTIVITY 
~ASCII LOG DATA                                                                
# ...
   1069.0000    76.0000    75.7234    17.8853     1.8596     3.5975   -47.6000     9.2472     2.4653     0.0205   -99999.0 
   1069.2000    76.0765    84.9698    19.7370     1.7129     3.5102   -47.4470     9.3106     2.4177     0.0275   -99999.0 
   1069.4000    77.2858    88.9489    21.0817     1.5615     3.2726   -47.5000     9.3354     2.3426     0.0201   -99999.0 
   1069.6000    80.6303    83.9027    21.1958     1.4152     3.0371   -47.4610     9.2020     2.2977     0.0057   -99999.0 
   1069.8000    83.8744    73.9571    20.6049     1.2990     2.9221   -47.1894     9.0660     2.3036    -0.0045   -99999.0 
   1070.0000    84.5769    63.1772    19.0191     1.2328     2.7861   -46.7957     9.0803     2.3351    -0.0009   -99999.0 
   1070.2000    82.3465    59.3012    16.5146     1.2070     2.7757   -46.5000     9.1065     2.3427     0.0086   -99999.0 
   1070.4000    80.3609    59.1836    15.5338     1.1977     2.7421   -46.4361     9.0817     2.3310     0.0126   -99999.0 
   1070.6000    80.6660    56.7971    16.5912     1.1941     2.6702   -46.3049     9.0600     2.3184     0.0092   -99999.0 
   1070.8000    82.2110    55.6286    18.5436     1.2010     2.6069   -46.3209     9.1053     2.3028     0.0042   -99999.0 
   1071.0000    82.8576    62.4088    20.1194     1.2115     2.5688   -46.1000     9.1315     2.2934     0.0003   -99999.0 
   1071.2000    82.3669    64.9534    20.7787     1.2363     2.5763   -46.2777     9.1045     2.2992    -0.0001   -99999.0 
   1071.4000    80.8791    60.9246    20.1811     1.2813     2.5834   -46.1000     9.1160     2.3002     0.0002   -99999.0 
   1071.6000    79.7434    61.0945    19.1212     1.3263     2.5494   -45.9974     9.1000     2.2915     0.0010   -99999.0 
   1071.8000    79.9127    63.9408    19.6238     1.3321     2.5839   -45.9000     9.0835     2.2999     0.0010   -99999.0 
   1072.0000    81.4378    60.3434    19.7969     1.2818     2.5570   -45.9862     9.0400     2.3299     0.0026   -99999.0 
   1072.2000    82.2550    57.4824    19.3379     1.2252     2.5285   -45.9900     9.0940     2.3493     0.0087   -99999.0 
   1072.4000    81.7425    60.4636    19.3273     1.1883     2.4669   -46.0237     9.2057     2.3350     0.0158   -99999.0 
   1072.6000    81.5748    70.4921    20.6053     1.1619     2.4022   -46.1000     9.3125     2.2964     0.0189   -99999.0 
   1072.8000    83.1969    71.2218    21.7606     1.1211     2.2925   -46.1000     9.2123     2.2775     0.0158   -99999.0 
   1073.0000    85.6290    63.4248    21.3184     1.0781     2.2337   -45.9601     9.2420     2.3003     0.0147   -99999.0 
   1073.2000    86.5787    51.2700    20.6448     1.0544     2.1873   -45.8000     9.2802     2.3360     0.0180   -99999.0 
   1073.4000    84.1841    50.2473    20.2132     1.0496     2.1414   -45.8324     9.3065     2.3252     0.0171   -99999.0 
   1073.6000    82.5181    59.5587    20.3855     1.0281     2.1344   -46.0273     9.3200     2.2936     0.0079   -99999.0 
   1073.8000    82.9642    63.7224    20.5559     0.9709     2.1473   -46.1000     9.2820     2.2860     0.0022   -99999.0 
   1074.0000    84.9350    56.7180    20.0281     0.8956     2.0507   -46.1739     9.3104     2.2889     0.0007   -99999.0 
   1074.2000    85.4853    52.3796    19.8891     0.8276     1.9522   -46.0426     9.3859     2.2721     0.0000   -99999.0 
   1074.4000    84.8685    51.8004    19.9646     0.7688     1.8828   -46.0000     9.3668     2.2472     0.0027   -99999.0 
   1074.6000    85.1576    47.4314    20.2719     0.7190     1.8226   -45.8604     9.3879     2.2320     0.0090   -99999.0 
   1074.8000    86.9657    42.2869    20.1873     0.6752     1.7578   -45.6490     9.4608     2.2270     0.0130   -99999.0 
   1075.0000    88.3583    39.1556    20.2575     0.6459     1.7399   -45.6823     9.5165     2.2244     0.0105   -99999.0 
   1075.2000    89.3811    39.1699    21.0157     0.6382     1.6866   -45.7865     9.5400     2.2168     0.0080   -99999.0 
   1075.4000    90.1237    42.4453    22.4890     0.6594     1.6779   -45.7000     9.5310     2.2045     0.0080   -99999.0 
   1075.6000    90.7799    43.6803    22.6996     0.7087     1.6672   -45.8520     9.5352     2.1982     0.0072   -99999.0 
   1075.8000    91.4289    43.0207    22.3628     0.7876     1.6695   -45.7856     9.6200     2.2162     0.0061   -99999.0 
   1076.0000    91.7231    43.7800    22.2046     0.9081     1.7135   -45.4846     9.6354     2.2592     0.0074   -99999.0 
   1076.2000    90.9031    44.6716    21.7237     1.0835     1.7804   -45.0213     9.6530     2.3085     0.0108   -99999.0 
   1076.4000    89.1807    46.3144    20.4167     1.3392     1.9378   -44.6963     9.6394     2.3542     0.0222   -99999.0 
   1076.6000    86.3283    47.7330    18.8578     1.7389     2.1524   -44.2679     9.6057     2.3829     0.0481   -99999.0 
   1076.8000    83.7492    50.9321    18.9359     2.2618     2.4000   -44.2000     9.6600     2.3973     0.0616   -99999.0 
   1077.0000    83.8623    56.4590    20.2843     2.8780     2.6912   -44.1054     9.6789     2.4218     0.0431   -99999.0 
   1077.2000    84.9776    68.7868    22.2464     3.4815     2.9938   -44.0258     9.9439     2.4711     0.0164   -99999.0 
   1077.4000    85.0287    83.7588    23.3484     3.9749     3.2573   -44.1571    10.0814     2.5143     0.0107   -99999.0 
   1077.6000    83.1336   106.1536    23.2975     4.2565     3.5232   -44.2883    10.0900     2.5303     0.0173   -99999.0 
   1077.8000    80.2262   117.5050    23.5723     4.1655     3.7151   -44.2196    10.0900     2.5113     0.0204   -99999.0 
   1078.0000    78.5921   122.2594    23.7278     3.7560     3.7933   -44.3000    10.0900     2.4738     0.0155   -99999.0 
   1078.2000    77.4438   117.5031    23.3521     3.2406     3.7733   -44.3000    10.0736     2.4452     0.0146   -99999.0 
   1078.4000    77.3663   109.8011    22.7015     2.7960     3.6279   -44.6265     9.8565     2.4145     0.0191   -99999.0 
   1078.6000    77.8890   108.1391    21.4141     2.4761     3.4226   -44.7555    10.0567     2.3712     0.0196   -99999.0 
   1078.8000    78.1514   103.9737    20.8534     2.2696     3.2077   -44.7000     9.8401     2.3434     0.0190   -99999.0 
   1079.0000    78.9626    81.5177    21.4207     2.1838     3.0407   -44.6000     9.6800     2.3422     0.0209   -99999.0 
   1079.2000    79.8764    68.7576    21.0557     2.2314     2.9290   -44.5236     9.6991     2.3450     0.0175   -99999.0 
   1079.4000    79.6529    57.8764    19.3392     2.3874     2.8901   -44.0529     9.7508     2.3499     0.0143   -99999.0 
   1079.6000    78.6961    53.4481    18.1740     2.6257     2.8844   -43.4967     9.7804     2.3773     0.0150   -99999.0 
   1079.8000    77.9405    52.4810    17.2600     2.9296     2.9661   -42.8405     9.8783     2.4339     0.0270   -99999.0 
   1080.0000    77.0950    54.2656    17.0832     3.2664     3.0850   -42.2475    10.0042     2.4895     0.0819   -99999.0 
   1080.2000    75.7621    64.1352    16.7158     3.6237     3.2223   -41.7226    10.1244     2.4850     0.1729   -99999.0 
   1080.4000    74.6768    79.7866    17.6025     3.9093     3.3545   -41.3976    10.3284     2.3822     0.2265   -99999.0 
   1080.6000    75.7523    89.5230    20.8602     3.9285     3.4719   -40.8159    10.4684     2.2604     0.2092   -99999.0 
   1080.8000    80.2745   108.3819    25.6117     3.6314     3.4853   -40.6000    10.8775     2.1898     0.1668   -99999.0 
   1081.0000    88.2331   114.9114    29.4724     3.2503     3.4594   -40.3807    11.0346     2.1802     0.1625   -99999.0 
   1081.2000    92.6136   118.6360    31.1914     3.0795     3.4474   -40.1989    13.0602     2.1613     0.1846   -99999.0 
   1081.4000    97.1703   118.1808    33.6968     3.2300     3.4034   -40.1000    13.6481     2.0953     0.1879   -99999.0 
   1081.6000   100.7079   116.3134    38.0379     3.7397     3.4014   -40.2390    12.6790     1.9991     0.1549   -99999.0 
   1081.8000   104.7093   114.6663    40.8828     4.3854     3.4638   -40.4558    13.3601     1.9469     0.0875   -99999.0 
