~VERSION INFORMATION                                                           
 VERS.           2.0: CWLS Log ASCII Standard - Version 2.0                    
 WRAP.            NO: One Line per Depth Step                                  
~WELL INFORMATION                                                              
#MNEM.UNIT              DATA            DESCRIPTION OF MNEMONIC                
#-----------            ----            -----------------------                
 STRT.MORRA           900.0000              :Start Depth                           
 STOP.M          2147.0000              :Stop  Depth                           
 STEP.M             0.2000              :Step                                  
 NULL.              -99999.0            :Null Value                            
 COMP.     PETROLEO BRASILEIRO S/A      :Company                               
 ORIG.     SIGEO EXPORTACAO PERFIL      :Origem dos dados                      
 WELL.     7FU  0128  AL                :Well                                  
 FLD.                                   :Field                                 
 LOC.                                   :Location                              
 STAT.                                  :State                                 
 SRVC.                                  :Service Company                       
 DATE.                                  :Log Date                              
 API.      081150370200                 :API Code                              
 X.              815480.800000          :Surface X                             
 Y.              8917272.700000         :Surface Y                             
 HZCS.           UTM                    :Horizontal Coordinate System          
 MC.               39 W                 :Meridiano Central
 LATI.             -9.782647            :Latitude                              
 LONG.            -36.124445            :Longitude                             
 GDAT.           SIRGAS2000             :Geodetic Datum                        
 EKB.M            27.0000               :Elevation Kelly Bushing               
 EGL.M            22.0000               :GROUND ELEVATION                      
~CURVE INFORMATION                                                             
 DEPT.M		                            :Measured Depth                        
 DT.us/ft                               :DELTA-T (ALSO CALLED SLOWNESS OR INTERVAL TRANSIT TIME) 
 GR.gAPI                                :GAMMA RAY 
 NPHI.%                                 :THERMAL NEUTRON POROSITY (ORIGINAL RATIO METHOD) IN SELECTED LITHOLOGY 
 ILD.ohm.m                              :INDUCTION DEEP RESISTIVITY 
 SN.ohm.m                               :SHORT NORMAL RESISTIVITY 
 SP.mV                                  :SPONTANEOUS POTENTIAL 
 CALI.in                                :CALIPER 
 RHOB.g/cm3                             :BULK DENSITY 
 DRHO.g/cm3                             :BULK DENSITIY CORRECTION 
 MSFL.ohm.m                             :MICRO-SPHERICALLY-FOCUSED RESISTIVITY 
~ASCII LOG DATA                                                                
# ...
   1810.0000    74.8575   109.6469    24.6523     5.0816     6.2047   -18.5685     8.6331     2.5394     0.0121   -99999.0 
   1810.2000    76.8487   114.6588    24.2999     5.0816     6.1252   -18.3060     8.6206     2.5438     0.0012   -99999.0 
   1810.4000    76.7921   113.3861    22.1186     5.1285     6.0556   -18.2282     8.5715     2.5578     0.0016   -99999.0 
   1810.6000    74.7272   106.4926    21.2619     5.2890     6.0339   -18.5378     8.5559     2.5686     0.0030   -99999.0 
   1810.8000    74.2907    96.1244    21.2337     5.6577     6.0648   -18.7907     8.5600     2.5755     0.0030   -99999.0 
   1811.0000    74.3247    83.7654    19.4866     6.2717     6.1595   -19.3096     8.5800     2.5835     0.0128   -99999.0 
   1811.2000    72.4776    67.6069    16.7104     6.9977     6.3146   -19.9126     8.5694     2.5917     0.0288   -99999.0 
   1811.4000    69.3748    60.4644    14.3408     7.6691     6.4701   -20.5219     8.5600     2.5923     0.0340   -99999.0 
   1811.6000    67.1814    60.2770    12.6154     8.1302     6.5933   -20.9937     8.5584     2.5816     0.0274   -99999.0 
   1811.8000    65.2504    61.7995    11.8204     8.1622     6.7343   -21.5937     8.5641     2.5731     0.0240   -99999.0 
   1812.0000    63.4630    62.4618    11.7084     7.7748     6.8165   -21.6219     8.5878     2.5775     0.0279   -99999.0 
   1812.2000    63.5932    65.4225    12.3245     7.1497     6.7678   -21.2627     8.5800     2.5939     0.0387   -99999.0 
   1812.4000    64.6622    78.5018    13.8732     6.5267     6.6279   -20.6973     8.5962     2.6026     0.0460   -99999.0 
   1812.6000    65.4743    87.7829    17.0900     5.9618     6.4183   -20.0411     8.6272     2.5984     0.0424   -99999.0 
   1812.8000    68.7026   100.2248    20.0590     5.4724     6.1751   -19.1789     8.6297     2.5930     0.0328   -99999.0 
   1813.0000    72.3768   108.3675    20.7145     5.0381     5.9464   -18.4315     8.6234     2.5937     0.0246   -99999.0 
   1813.2000    73.0345   107.8309    20.8720     4.6782     5.7343   -18.1690     8.6235     2.5957     0.0213   -99999.0 
   1813.4000    72.9033   107.5867    21.1615     4.4215     5.5881   -17.8098     8.6297     2.5892     0.0191   -99999.0 
   1813.6000    73.0957   109.5784    21.4890     4.3041     5.4996   -17.3602     8.6328     2.5794     0.0183   -99999.0 
   1813.8000    74.3694   111.0577    22.0778     4.2756     5.3935   -16.8224     8.6282     2.5821     0.0202   -99999.0 
   1814.0000    76.0755   110.4102    22.3623     4.3024     5.2805   -16.6096     8.6200     2.5968     0.0228   -99999.0 
   1814.2000    76.4268   109.6573    21.3759     4.2967     5.1845   -16.3350     8.6200     2.6086     0.0220   -99999.0 
   1814.4000    75.1125   108.5376    20.5196     4.2246     5.1037   -16.0471     8.5988     2.6105     0.0252   -99999.0 
   1814.6000    73.6588   109.8432    20.7622     4.1157     5.0522   -15.7476     8.5800     2.6134     0.0389   -99999.0 
   1814.8000    73.7764   115.8680    21.6783     4.0637     4.9818   -15.7000     8.5800     2.6226     0.0594   -99999.0 
   1815.0000    76.2318   120.0840    22.1827     4.1880     4.9011   -15.6534     8.5800     2.5430     0.0656   -99999.0 
   1815.2000    77.6891   120.9328    22.1011     4.4164     4.7584   -15.5222     8.5644     2.3033     0.0679   -99999.0 
   1815.4000    78.3543   118.5655    21.4201     4.4545     4.5912   -15.6181     8.5827     2.0584     0.1035   -99999.0 
   1815.6000    78.4568   115.8080    21.0757     4.0345     4.4159   -15.8000     8.6463     1.9623     0.1491   -99999.0 
   1815.8000    75.6543   114.6964    20.4736     3.3558     4.2408   -15.8715     8.7286     1.9544     0.1690   -99999.0 
   1816.0000    73.8157   112.7216    22.0068     2.7200     4.0683   -16.0000     8.9305     1.9883     0.1712   -99999.0 
   1816.2000    80.6871   106.6675    26.4092     2.3359     3.7932   -15.7281     9.1573     2.0520     0.1807   -99999.0 
   1816.4000    92.7527   102.9882    32.0820     2.1163     3.5012   -14.4173     9.5991     2.1006     0.1939   -99999.0 
   1816.6000   101.6051    99.8565    37.2599     1.9498     3.4201   -13.8071     9.6393     2.1360     0.2038   -99999.0 
   1816.8000    99.8846    98.6667    40.2817     1.7768     3.4068   -13.2169     9.3103     2.1978     0.2193   -99999.0 
   1817.0000    97.5626    98.7052    40.4163     1.6396     3.3143   -12.8822     8.5800     2.1762     0.2245   -99999.0 
   1817.2000    93.8150    98.7433    38.3283     1.6069     3.2329   -12.6197    11.7896     2.0172     0.1968   -99999.0 
   1817.4000    90.1160    98.2867    36.6430     1.7584     3.1895   -12.4428    10.4642     1.8700     0.1459   -99999.0 
   1817.6000    85.1844    99.3548    36.6810     2.1313     3.1247   -12.6000    12.0653     1.8638     0.1060   -99999.0 
   1817.8000    87.6898   102.8625    35.9721     2.6873     3.1275   -12.6839    12.0532     1.9853     0.1062   -99999.0 
   1818.0000    90.6718   107.9021    31.8335     3.1517     3.2618   -13.0453    12.0485     2.1435     0.1451   -99999.0 
   1818.2000    85.6617   112.9207    28.6654     3.3138     3.3651   -13.5316    12.0307     2.2200     0.1819   -99999.0 
   1818.4000    81.9039   113.3982    26.6552     3.3283     3.2707   -13.9551    12.0200     2.1983     0.1887   -99999.0 
   1818.6000    81.9869   109.3951    28.3336     3.2902     3.1621   -14.0176    12.0000     2.1555     0.1799   -99999.0 
   1818.8000    88.8419   108.2940    31.6267     3.1590     3.2722   -14.2400    12.0000     2.1528     0.1802   -99999.0 
   1819.0000    95.0953   106.2320    35.8980     2.8588     3.3266   -14.3713    12.2280     2.1577     0.1820   -99999.0 
   1819.2000    96.8499   104.1486    41.9583     2.4711     3.1969   -14.5050    12.5160     2.1675     0.1780   -99999.0 
   1819.4000    99.1373   101.8836    45.6494     2.1542     3.1116   -14.7675    12.4409     2.1836     0.1763   -99999.0 
   1819.6000    99.9299   103.3182    44.8273     1.9224     3.0246   -14.9650    12.4311     2.1478     0.1692   -99999.0 
   1819.8000   100.0962   105.6764    40.8498     1.7897     2.9395   -14.6152    11.4646     2.0848     0.1535   -99999.0 
   1820.0000    96.0606   106.6145    37.3567     1.7780     2.8375   -14.4451    12.3278     2.1046     0.1368   -99999.0 
   1820.2000    87.2323   105.9270    37.2918     1.8235     2.7155   -14.0654    13.1466     2.2009     0.1357   -99999.0 
   1820.4000    82.2132   103.8510    37.9324     1.8408     2.6847   -13.6303    13.7847     2.2720     0.1579   -99999.0 
   1820.6000    69.6999   102.6036    39.0638     1.7754     2.7519   -13.2366    13.2549     2.1990     0.1763   -99999.0 
   1820.8000    64.1524   102.8082    40.9017     1.7486     2.7736   -12.8429    12.2667     2.0371     0.1485   -99999.0 
   1821.0000    64.1164   102.9635    41.4901     1.8930     2.7851   -12.5328    13.3954     1.9370     0.0713   -99999.0 
   1821.2000    64.0148   101.7447    37.6510     2.2997     2.8786   -12.1852    14.1383     2.0342    -0.0145   -99999.0 
   1821.4000    64.1000   102.9386    30.7994     2.9118     3.0810   -12.1000    14.8337     2.2914    -0.0451   -99999.0 
   1821.6000    64.1773   106.6057    25.6590     3.5750     3.2926   -12.2546    14.3171     2.5027    -0.0316   -99999.0 
   1821.8000    64.3085   109.3071    19.4363     4.3364     3.4538   -12.5085    10.0561     2.5803    -0.0188   -99999.0 
   1822.0000    64.5988   109.8649    16.9141     5.6472     3.6416   -12.7591     8.6200     2.5808    -0.0170   -99999.0 
   1822.2000    65.6100   104.0178    18.3880     8.0648     3.9757   -13.2840     8.6200     2.5760    -0.0156   -99999.0 
   1822.4000    71.3696   101.0772    21.3196    11.6598     4.6895   -13.9112     8.6202     2.5842    -0.0110   -99999.0 
   1822.6000    78.7665    95.8302    21.9290    13.4908     5.3663   -14.5339     8.6333     2.5930    -0.0093   -99999.0 
   1822.8000    74.7534    89.6638    19.3014    11.9464     5.8659   -15.1882     8.6335     2.5956    -0.0106   -99999.0 
