~VERSION INFORMATION                                                           
 VERS.           2.0: CWLS Log ASCII Standard - Version 2.0                    
 WRAP.            NO: One Line per Depth Step                                  
~WELL INFORMATION                                                              
#MNEM.UNIT              DATA            DESCRIPTION OF MNEMONIC                
#-----------            ----            -----------------------                
 STRT.MORRA           900.0000              :Start Depth                           
 STOP.M          2147.0000              :Stop  Depth                           
 STEP.M             0.2000              :Step                                  
 NULL.              -99999.0            :Null Value                            
 COMP.     PETROLEO BRASILEIRO S/A      :Company                               
 ORIG.     SIGEO EXPORTACAO PERFIL      :Origem dos dados                      
 WELL.     7FU  0128  AL                :Well                                  
 FLD.                                   :Field                                 
 LOC.                                   :Location                              
 STAT.                                  :State                                 
 SRVC.                                  :Service Company                       
 DATE.                                  :Log Date                              
 API.      081150370200                 :API Code                              
 X.              815480.800000          :Surface X                             
 Y.              8917272.700000         :Surface Y                             
 HZCS.           UTM                    :Horizontal Coordinate System          
 MC.               39 W                 :Meridiano Central
 LATI.             -9.782647            :Latitude                              
 LONG.            -36.124445            :Longitude                             
 GDAT.           SIRGAS2000             :Geodetic Datum                        
 EKB.M            27.0000               :Elevation Kelly Bushing               
 EGL.M            22.0000               :GROUND ELEVATION                      
~CURVE INFORMATION                                                             
 DEPT.M		                            :Measured Depth                        
 DT.us/ft                               :DELTA-T (ALSO CALLED SLOWNESS OR INTERVAL TRANSIT TIME) 
 GR.gAPI                                :GAMMA RAY 
 NPHI.%                                 :THERMAL NEUTRON POROSITY (ORIGINAL RATIO METHOD) IN SELECTED LITHOLOGY 
 ILD.ohm.m                              :INDUCTION DEEP RESISTIVITY 
 SN.ohm.m                               :SHORT NORMAL RESISTIVITY 
 SP.mV                                  :SPONTANEOUS POTENTIAL 
 CALI.in                                :CALIPER 
 RHOB.g/cm3                             :BULK DENSITY 
 DRHO.g/cm3                             :BULK DENSITIY CORRECTION 
 MSFL.ohm.m                             :MICRO-SPHERICALLY-FOCUSED RESISTIVITY 
~ASCII LOG DATA                                                                
# ...
   1888.0000    75.2279   123.6584    24.6131     3.6487     4.2444   -41.0594     8.4800     2.6111     0.0025   -99999.0 
   1888.2000    75.8342   121.6702    24.6831     3.7742     4.3299   -40.6658     8.4644     2.6051     0.0028   -99999.0 
   1888.4000    76.3932   116.7308    24.6666     3.8801     4.4467   -40.2441     8.4891     2.5949     0.0090   -99999.0 
   1888.6000    78.1110   120.1914    25.5133     4.0062     4.5972   -39.6595     8.4719     2.5783     0.0239   -99999.0 
   1888.8000    81.6689   127.1471    27.1811     4.2284     4.7604   -39.6000     8.4456     2.5607     0.0303   -99999.0 
   1889.0000    86.0845   130.3515    29.0219     4.5702     4.9122   -39.4121     8.4200     2.5554     0.0145   -99999.0 
   1889.2000    89.2453   126.9842    27.7823     4.9939     5.0478   -39.8342     8.4097     2.5762    -0.0034   -99999.0 
   1889.4000    88.6593   114.8348    24.1625     5.4100     5.2266   -40.2274     8.3769     2.5998    -0.0073   -99999.0 
   1889.6000    83.0640   106.9923    20.0958     5.8895     5.4763   -40.6902     8.4184     2.6127    -0.0051   -99999.0 
   1889.8000    76.9378   100.6246    16.9566     6.7109     5.8688   -41.0838     8.3744     2.6188    -0.0024   -99999.0 
   1890.0000    72.4244    90.0062    14.1012     7.9708     6.2654   -41.2408     8.3245     2.6180    -0.0004   -99999.0 
   1890.2000    68.6682    78.2379    11.4226     9.3423     6.6407   -42.0138     8.3633     2.6061    -0.0018   -99999.0 
   1890.4000    63.9988    73.9901     9.1149    10.0081     6.9532   -42.2433     8.3613     2.5956    -0.0048   -99999.0 
   1890.6000    60.0422    72.3622     8.8650     9.7287     7.1579   -42.4529     8.3512     2.5945    -0.0024   -99999.0 
   1890.8000    59.0159    74.5646     9.9091     9.0622     7.2840   -42.6682     8.3700     2.5942    -0.0010   -99999.0 
   1891.0000    61.1992    80.5696    12.1058     8.3634     7.3154   -42.8000     8.3861     2.5985     0.0011   -99999.0 
   1891.2000    64.2852    84.7786    13.7356     7.5710     7.1751   -42.7534     8.4200     2.6126     0.0121   -99999.0 
   1891.4000    66.1560    91.6867    16.0720     6.7446     6.9577   -42.6222     8.4200     2.6221     0.0234   -99999.0 
   1891.6000    67.3539   101.7032    18.3303     6.0785     6.7104   -41.9638     8.4436     2.6163     0.0213   -99999.0 
   1891.8000    69.8669   114.0110    19.8206     5.7043     6.4565   -41.3583     8.4679     2.6082     0.0120   -99999.0 
   1892.0000    72.6589   118.3870    19.3177     5.5829     6.3055   -40.5709     8.4858     2.6056     0.0061   -99999.0 
   1892.2000    73.7752   112.2114    17.6571     5.6126     6.2075   -40.2972     8.4800     2.5978     0.0009   -99999.0 
   1892.4000    72.2882   100.1031    15.3651     5.7245     6.1660   -40.1320     8.4698     2.5893    -0.0027   -99999.0 
   1892.6000    69.8607    94.6359    14.4226     5.8645     6.1752   -39.8696     8.4435     2.5900    -0.0040   -99999.0 
   1892.8000    68.3319    96.8154    15.6525     6.0212     6.2077   -39.6071     8.4593     2.5910    -0.0040   -99999.0 
   1893.0000    69.1492   108.9240    18.6204     6.1613     6.2190   -39.0616     8.4638     2.5867    -0.0024   -99999.0 
   1893.2000    70.5071   117.2567    20.7581     6.2655     6.1835   -38.2875     8.5118     2.5901     0.0014   -99999.0 
   1893.4000    72.3524   115.4803    21.3092     6.3608     6.0771   -37.8197     8.5290     2.6020     0.0057   -99999.0 
   1893.6000    73.3214   111.8721    20.9892     6.5102     5.9636   -37.4786     8.5079     2.6041     0.0074   -99999.0 
   1893.8000    72.9264   110.3571    21.0231     6.7591     5.8389   -37.2948     8.5000     2.5857     0.0111   -99999.0 
   1894.0000    71.4098   111.8904    21.6273     6.9753     5.7056   -37.0323     8.4581     2.4856     0.0189   -99999.0 
   1894.2000    70.9113   114.5834    23.1636     6.9489     5.5598   -37.0094     8.4660     2.2764     0.0382   -99999.0 
   1894.4000    73.3045   117.1013    24.1023     6.5317     5.3181   -36.3610     8.5093     2.1180     0.0643   -99999.0 
   1894.6000    76.7165   115.9683    24.9600     5.6782     5.0096   -35.8122     8.5433     2.0874     0.0856   -99999.0 
   1894.8000    86.7486   114.0565    25.6214     4.5878     4.6055   -35.3560     8.8833     2.1117     0.1120   -99999.0 
   1895.0000   102.6619   111.7858    28.2631     3.6351     4.2014   -34.9000     9.6841     2.0768     0.1406   -99999.0 
   1895.2000   106.4586   109.5683    34.8404     2.9563     3.9097   -34.9713    11.5105     2.0058     0.1606   -99999.0 
   1895.4000   106.8848   107.1587    41.4778     2.5610     3.7482   -35.1000    12.5514     1.9486     0.1648   -99999.0 
   1895.6000   110.3686   104.0856    44.6157     2.4006     3.6727   -35.1000    13.7914     1.9401     0.1489   -99999.0 
   1895.8000   109.0760   100.6841    45.2582     2.3115     3.6175   -35.0350    15.4505     2.0152     0.1299   -99999.0 
   1896.0000   105.3142   101.9654    44.2242     2.2259     3.6138   -34.9038    16.1701     2.1576     0.1308   -99999.0 
   1896.2000   100.2126   104.5276    42.6271     2.1546     3.5862   -34.8452    16.8688     2.2046     0.1466   -99999.0 
   1896.4000    98.2453   103.3339    41.6131     2.1475     3.5467   -34.5240    15.9798     2.0992     0.1451   -99999.0 
   1896.6000   102.1160    99.9377    40.7982     2.2305     3.5035   -34.0404    15.6727     1.9304     0.1194   -99999.0 
   1896.8000   103.3732    98.5935    39.3359     2.4183     3.4805   -33.7155    16.1872     1.7935     0.0790   -99999.0 
   1897.0000   101.7480   101.2762    38.3136     2.6417     3.5465   -33.2953    16.4662     1.7617     0.0331   -99999.0 
   1897.2000    98.1085   103.8128    40.6792     2.8911     3.6733   -33.1164    15.7463     1.8945    -0.0143   -99999.0 
   1897.4000    99.6076   102.7729    39.7497     3.3058     3.7609   -33.1000    12.4167     2.1931    -0.0356   -99999.0 
   1897.6000    99.2799   103.8883    33.0306     3.9870     3.7959   -33.1000     9.6341     2.4609    -0.0293   -99999.0 
   1897.8000    92.2438   108.9834    25.5264     4.8537     3.9302   -33.2546     8.5500     2.5875    -0.0196   -99999.0 
   1898.0000    81.5223   110.5761    19.1277     5.8876     4.1164   -33.3341     8.5209     2.6272    -0.0117   -99999.0 
   1898.2000    74.9287   105.8537    14.5030     7.1427     4.2230   -34.1772     8.5101     2.6262    -0.0078   -99999.0 
   1898.4000    70.7831   104.6414    14.0010     8.1924     4.5771   -35.4680     8.4800     2.6170     0.0054   -99999.0 
   1898.6000    69.7647   112.8924    17.5892     8.1075     4.9815   -36.3112     8.5007     2.6003     0.0468   -99999.0 
   1898.8000    74.3736   120.4527    21.8531     6.8361     5.2085   -37.1012     8.5300     2.5576     0.0803   -99999.0 
   1899.0000    79.8409   123.6449    23.8246     5.5415     5.3045   -38.6705     8.5300     2.5207     0.0603   -99999.0 
   1899.2000    82.4349   117.6436    22.8408     4.6278     5.2505   -40.6390     8.5300     2.5207     0.0145   -99999.0 
   1899.4000    83.9839   102.4119    19.4246     4.1700     5.2305   -42.6618     8.5746     2.5345    -0.0005   -99999.0 
   1899.6000    78.5705    87.9907    16.0958     3.9487     5.3195   -44.7760     8.5250     2.5254     0.0016   -99999.0 
   1899.8000    70.2324    80.3293    15.4852     3.8754     5.4037   -47.6408     8.5269     2.5110     0.0002   -99999.0 
   1900.0000    68.2130    78.3313    16.5372     3.9455     5.4154   -49.1252     8.5221     2.5099    -0.0014   -99999.0 
   1900.2000    70.5462    79.4556    16.2413     4.0617     5.4911   -49.9647     8.5300     2.5295    -0.0040   -99999.0 
   1900.4000    72.9333    86.1226    14.7833     4.1337     5.5441   -50.5500     8.5133     2.5702    -0.0075   -99999.0 
   1900.6000    73.1272    98.5572    13.2587     4.1633     5.5609   -50.9000     8.5500     2.6087    -0.0113   -99999.0 
   1900.8000    72.4710   111.0412    14.2696     4.2146     5.5836   -50.7168     8.5500     2.6153    -0.0135   -99999.0 
