~VERSION INFORMATION                                                           
 VERS.           2.0: CWLS Log ASCII Standard - Version 2.0                    
 WRAP.            NO: One Line per Depth Step                                  
~WELL INFORMATION                                                              
#MNEM.UNIT              DATA            DESCRIPTION OF MNEMONIC                
#-----------            ----            -----------------------                
 STRT.MORRA           900.0000              :Start Depth                           
 STOP.M          2147.0000              :Stop  Depth                           
 STEP.M             0.2000              :Step                                  
 NULL.              -99999.0            :Null Value                            
 COMP.     PETROLEO BRASILEIRO S/A      :Company                               
 ORIG.     SIGEO EXPORTACAO PERFIL      :Origem dos dados                      
 WELL.     7FU  0128  AL                :Well                                  
 FLD.                                   :Field                                 
 LOC.                                   :Location                              
 STAT.                                  :State                                 
 SRVC.                                  :Service Company                       
 DATE.                                  :Log Date                              
 API.      081150370200                 :API Code                              
 X.              815480.800000          :Surface X                             
 Y.              8917272.700000         :Surface Y                             
 HZCS.           UTM                    :Horizontal Coordinate System          
 MC.               39 W                 :Meridiano Central
 LATI.             -9.782647            :Latitude                              
 LONG.            -36.124445            :Longitude                             
 GDAT.           SIRGAS2000             :Geodetic Datum                        
 EKB.M            27.0000               :Elevation Kelly Bushing               
 EGL.M            22.0000               :GROUND ELEVATION                      
~CURVE INFORMATION                                                             
 DEPT.M		                            :Measured Depth                        
 DT.us/ft                               :DELTA-T (ALSO CALLED SLOWNESS OR INTERVAL TRANSIT TIME) 
 GR.gAPI                                :GAMMA RAY 
 NPHI.%                                 :THERMAL NEUTRON POROSITY (ORIGINAL RATIO METHOD) IN SELECTED LITHOLOGY 
 ILD.ohm.m                              :INDUCTION DEEP RESISTIVITY 
 SN.ohm.m                               :SHORT NORMAL RESISTIVITY 
 SP.mV                                  :SPONTANEOUS POTENTIAL 
 CALI.in                                :CALIPER 
 RHOB.g/cm3                             :BULK DENSITY 
 DRHO.g/cm3                             :BULK DENSITIY CORRECTION 
 MSFL.ohm.m                             :MICRO-SPHERICALLY-FOCUSED RESISTIVITY 
~ASCII LOG DATA                                                                
# ...
   1719.0000    88.2089   115.0104    27.5279     2.4619     3.7171   -16.0000     9.1078     2.4002     0.0553   -99999.0 
   1719.2000    89.4140   116.3328    31.0151     2.5622     3.5405   -16.1714     9.4771     2.4610     0.0319   -99999.0 
   1719.4000    91.4492   117.5566    33.5592     2.7748     3.6237   -16.3508    10.0150     2.5359     0.0287   -99999.0 
   1719.6000    89.5143   114.3376    31.4696     3.0388     3.8617   -16.8890     8.8444     2.5796     0.0265   -99999.0 
   1719.8000    84.2859   107.7472    26.9815     3.3451     3.8926   -17.4382     8.7756     2.5940     0.0284   -99999.0 
   1720.0000    79.4492   100.8093    22.0547     3.7671     3.9867   -18.0957     8.5889     2.5879     0.0321   -99999.0 
   1720.2000    75.1604    97.6601    19.1078     4.3281     4.3047   -19.1931     8.5716     2.5761     0.0330   -99999.0 
   1720.4000    72.4228    96.6243    18.4200     4.9785     4.5972   -20.0386     8.5600     2.5691     0.0330   -99999.0 
   1720.6000    72.1000    92.1642    18.5840     5.5286     4.8832   -20.9303     8.5596     2.5627     0.0308   -99999.0 
   1720.8000    71.8866    86.1201    18.0522     5.7016     5.1086   -21.8134     8.5429     2.5507     0.0242   -99999.0 
   1721.0000    70.8988    81.0538    17.4160     5.6667     5.2727   -22.4672     8.5233     2.5323     0.0170   -99999.0 
   1721.2000    70.6000    76.3363    16.2601     5.6112     5.4056   -23.1882     8.5200     2.5143     0.0140   -99999.0 
   1721.4000    71.5756    71.4917    16.4634     5.5809     5.5230   -23.7293     8.5200     2.5142     0.0208   -99999.0 
   1721.6000    72.4235    72.2002    16.4050     5.5719     5.5746   -23.9815     8.5200     2.5134     0.0262   -99999.0 
   1721.8000    73.7091    75.2521    16.0548     5.5484     5.5729   -24.5587     8.5017     2.4954     0.0242   -99999.0 
   1722.0000    74.4459    79.1225    16.2157     5.4810     5.5473   -24.7689     8.5000     2.4778     0.0183   -99999.0 
   1722.2000    74.4916    75.7986    15.6640     5.4055     5.4875   -25.1626     8.5000     2.4803     0.0155   -99999.0 
   1722.4000    74.4854    69.4565    15.2519     5.3616     5.4594   -25.4709     8.4829     2.4787     0.0150   -99999.0 
   1722.6000    75.4833    66.7783    15.1000     5.3436     5.4346   -25.2333     8.4800     2.4600     0.0157   -99999.0 
   1722.8000    76.8311    68.9180    15.0728     5.2983     5.4450   -25.3521     8.4800     2.4524     0.0126   -99999.0 
   1723.0000    78.0122    70.9328    15.0383     5.1467     5.4351   -24.9043     8.4879     2.4716     0.0086   -99999.0 
   1723.2000    79.3311    72.9881    16.4370     4.8974     5.3665   -24.0378     8.4800     2.5041     0.0105   -99999.0 
   1723.4000    79.6000    83.2480    19.0219     4.6067     5.3029   -23.1256     8.4800     2.5262     0.0162   -99999.0 
   1723.6000    79.8185    96.4664    21.1996     4.3232     5.1902   -21.9445     8.4800     2.5349     0.0180   -99999.0 
   1723.8000    80.0000   101.9922    21.9428     4.0881     5.0303   -21.1837     8.4788     2.5413     0.0200   -99999.0 
   1724.0000    80.1059   104.2719    23.2955     3.9746     4.8926   -20.6588     8.4606     2.5501     0.0210   -99999.0 
   1724.2000    81.2315   109.1413    26.0009     4.0242     4.8122   -20.2004     8.4800     2.5460     0.0190   -99999.0 
   1724.4000    83.6554   112.5097    25.4074     4.2134     4.7758   -19.9045     8.4800     2.5234     0.0160   -99999.0 
   1724.6000    83.3909   104.0611    20.3670     4.4823     4.8167   -20.1160     8.4600     2.5041     0.0100   -99999.0 
   1724.8000    80.2134    83.5543    16.2972     4.8041     4.9323   -20.5807     8.4720     2.5116     0.0008   -99999.0 
   1725.0000    76.6303    69.4246    13.9442     5.1861     5.1049   -20.7915     8.4526     2.5427    -0.0038   -99999.0 
   1725.2000    73.4686    68.2150    13.5993     5.6117     5.3323   -20.4092     8.4800     2.5717    -0.0003   -99999.0 
   1725.4000    71.0291    72.4908    15.3832     5.9375     5.5785   -19.7764     8.4800     2.5832     0.0015   -99999.0 
   1725.6000    69.4335    80.0203    17.4920     6.0970     5.6827   -19.0741     8.4544     2.5859    -0.0016   -99999.0 
   1725.8000    70.1461    90.1713    18.1535     6.0911     5.6993   -18.3016     8.4500     2.5860    -0.0065   -99999.0 
   1726.0000    71.7811    94.3983    17.1979     5.8882     5.7671   -17.5618     8.4738     2.5865    -0.0085   -99999.0 
   1726.2000    71.8056    94.4998    16.8236     5.5033     5.7705   -16.9056     8.5394     2.5846    -0.0056   -99999.0 
   1726.4000    71.2606    94.9190    17.4055     5.0440     5.7358   -16.2394     8.5500     2.5725    -0.0018   -99999.0 
   1726.6000    72.6268   100.7339    19.3449     4.5673     5.6297   -15.4933     8.5541     2.5536     0.0012   -99999.0 
   1726.8000    75.9772   109.4045    22.0162     4.1811     5.4096   -14.7646     8.5600     2.5395     0.0066   -99999.0 
   1727.0000    80.6218   114.5369    24.6232     3.9614     5.1089   -14.2810     8.5600     2.5385     0.0111   -99999.0 
   1727.2000    84.2256   113.5890    26.2866     3.9360     4.8317   -13.7299     8.5600     2.5597     0.0161   -99999.0 
   1727.4000    84.9349   109.4651    25.2701     3.9718     4.5896   -13.4675     8.5335     2.5839     0.0266   -99999.0 
   1727.6000    82.3623   105.3070    22.4376     3.9102     4.4188   -13.2050     8.5200     2.5763     0.0466   -99999.0 
   1727.8000    78.2665   104.5994    20.9992     3.6092     4.3280   -13.0713     8.5071     2.4800     0.0899   -99999.0 
   1728.0000    75.2404   108.7611    20.8719     3.1800     4.2386   -12.8801     8.5360     2.3612     0.1532   -99999.0 
   1728.2000    75.1472   110.3521    22.6891     2.7507     4.0770   -12.5264     9.1072     2.3045     0.2087   -99999.0 
   1728.4000    81.2421   109.5723    26.7136     2.4264     3.8152   -12.3551    10.2912     2.3023     0.2107   -99999.0 
   1728.6000    92.8087   106.7820    31.5084     2.1729     3.5380   -11.9853    10.8603     2.2919     0.1654   -99999.0 
   1728.8000    99.2472   107.2108    34.7353     1.9444     3.3968   -11.5453    11.1428     2.2799     0.1212   -99999.0 
   1729.0000    99.7803   110.2023    35.9965     1.7582     3.3301   -11.3516    11.2854     2.3079     0.1250   -99999.0 
   1729.2000    95.5629   112.6834    36.6447     1.6551     3.1664   -11.0053    10.9500     2.3620     0.1550   -99999.0 
   1729.4000    92.4353   110.9224    36.4670     1.6360     3.0256   -10.7428    11.1072     2.3922     0.1634   -99999.0 
   1729.6000    94.2378   110.6377    34.3117     1.6707     2.9834   -10.6606    10.7867     2.3897     0.1453   -99999.0 
   1729.8000    95.7054   110.1435    32.9873     1.7168     2.9481   -10.1768    10.5707     2.3886     0.1443   -99999.0 
   1730.0000    97.2293   109.9376    31.9604     1.7553     2.9096    -9.9277    10.7143     2.3881     0.1686   -99999.0 
   1730.2000    97.4610   110.5719    31.7677     1.7825     2.9047    -9.8035    11.6405     2.3727     0.1911   -99999.0 
   1730.4000    96.4695   114.0082    34.5350     1.7865     2.9288    -9.9348    11.1448     2.3657     0.1885   -99999.0 
   1730.6000    94.8177   113.0771    36.8641     1.7757     2.9376   -10.0660    11.3024     2.3776     0.1721   -99999.0 
   1730.8000    90.7882   111.7383    35.4390     1.7348     2.8985   -10.0028    11.2722     2.3839     0.1690   -99999.0 
   1731.0000    91.5411   114.7859    32.8599     1.6812     2.8840   -10.0000    10.9783     2.3636     0.1770   -99999.0 
   1731.2000    94.2136   115.3301    32.6122     1.6235     2.8448   -10.0000    11.2455     2.3470     0.1734   -99999.0 
   1731.4000    97.5555   111.5950    35.3409     1.5770     2.7890    -9.8181    11.1645     2.3523     0.1710   -99999.0 
   1731.6000    99.6887   110.3253    37.9074     1.5406     2.7339    -9.6556    10.7389     2.3579     0.1716   -99999.0 
   1731.8000    99.8398   111.0053    38.3163     1.5166     2.7123    -9.4466    10.7155     2.3535     0.1491   -99999.0 
