~VERSION INFORMATION                                                           
 VERS.           2.0: CWLS Log ASCII Standard - Version 2.0                    
 WRAP.            NO: One Line per Depth Step                                  
~WELL INFORMATION                                                              
#MNEM.UNIT              DATA            DESCRIPTION OF MNEMONIC                
#-----------            ----            -----------------------                
 STRT.MORRA           900.0000              :Start Depth                           
 STOP.M          2147.0000              :Stop  Depth                           
 STEP.M             0.2000              :Step                                  
 NULL.              -99999.0            :Null Value                            
 COMP.     PETROLEO BRASILEIRO S/A      :Company                               
 ORIG.     SIGEO EXPORTACAO PERFIL      :Origem dos dados                      
 WELL.     7FU  0128  AL                :Well                                  
 FLD.                                   :Field                                 
 LOC.                                   :Location                              
 STAT.                                  :State                                 
 SRVC.                                  :Service Company                       
 DATE.                                  :Log Date                              
 API.      081150370200                 :API Code                              
 X.              815480.800000          :Surface X                             
 Y.              8917272.700000         :Surface Y                             
 HZCS.           UTM                    :Horizontal Coordinate System          
 MC.               39 W                 :Meridiano Central
 LATI.             -9.782647            :Latitude                              
 LONG.            -36.124445            :Longitude                             
 GDAT.           SIRGAS2000             :Geodetic Datum                        
 EKB.M            27.0000               :Elevation Kelly Bushing               
 EGL.M            22.0000               :GROUND ELEVATION                      
~CURVE INFORMATION                                                             
 DEPT.M		                            :Measured Depth                        
 DT.us/ft                               :DELTA-T (ALSO CALLED SLOWNESS OR INTERVAL TRANSIT TIME) 
 GR.gAPI                                :GAMMA RAY 
 NPHI.%                                 :THERMAL NEUTRON POROSITY (ORIGINAL RATIO METHOD) IN SELECTED LITHOLOGY 
 ILD.ohm.m                              :INDUCTION DEEP RESISTIVITY 
 SN.ohm.m                               :SHORT NORMAL RESISTIVITY 
 SP.mV                                  :SPONTANEOUS POTENTIAL 
 CALI.in                                :CALIPER 
 RHOB.g/cm3                             :BULK DENSITY 
 DRHO.g/cm3                             :BULK DENSITIY CORRECTION 
 MSFL.ohm.m                             :MICRO-SPHERICALLY-FOCUSED RESISTIVITY 
~ASCII LOG DATA                                                                
# ...
   1966.0000    66.7173    64.2583     8.7233     1.4058     3.2618   -52.8012     8.3628     2.6231     0.0068   -99999.0 
   1966.2000    64.4633    84.0543    15.8947     1.7673     3.7045   -49.5203     8.4173     2.6219    -0.0043   -99999.0 
   1966.4000    67.4647   108.5042    22.6835     2.1545     4.0861   -46.5108     8.4952     2.6136    -0.0107   -99999.0 
   1966.6000    73.8961   123.6179    25.8085     2.4383     4.2318   -43.9535     8.5000     2.6132    -0.0086   -99999.0 
   1966.8000    78.8751   132.9095    26.2738     2.5786     4.2699   -41.8538     8.5000     2.6129    -0.0075   -99999.0 
   1967.0000    80.5206   137.2513    26.0962     2.6582     4.2069   -40.5953     8.5000     2.6078    -0.0122   -99999.0 
   1967.2000    81.5842   134.7029    25.7302     2.7637     4.1702   -39.5772     8.5000     2.6053    -0.0160   -99999.0 
   1967.4000    82.5534   128.9546    24.5063     2.9072     4.1918   -38.5273     8.4907     2.6089    -0.0155   -99999.0 
   1967.6000    81.4883   121.2126    23.4631     3.0695     4.2452   -37.7109     8.4956     2.6141    -0.0142   -99999.0 
   1967.8000    79.3461   110.7415    23.1436     3.2416     4.3524   -37.1457     8.5000     2.6171    -0.0128   -99999.0 
   1968.0000    77.5583   108.0961    23.3847     3.4435     4.4674   -36.5194     8.5000     2.6192    -0.0094   -99999.0 
   1968.2000    77.2715   112.2043    23.0179     3.6985     4.5816   -36.2570     8.5000     2.6231    -0.0049   -99999.0 
   1968.4000    77.7972   116.8466    21.7816     4.0166     4.7128   -36.0193     8.5000     2.6260    -0.0051   -99999.0 
   1968.6000    77.1222   111.4632    19.1116     4.3890     4.8615   -36.8360     8.5000     2.6260    -0.0117   -99999.0 
   1968.8000    74.0433   105.4920    17.3625     4.7403     5.0258   -37.5566     8.5000     2.6273    -0.0157   -99999.0 
   1969.0000    69.5275   102.3410    16.7899     5.0502     5.2069   -38.5717     8.5000     2.6299    -0.0121   -99999.0 
   1969.2000    66.5338   102.7767    17.1126     5.3394     5.4155   -38.6277     8.5000     2.6362    -0.0049   -99999.0 
   1969.4000    66.5714   104.4741    16.7918     5.5733     5.6094   -38.5822     8.5000     2.6467    -0.0014   -99999.0 
   1969.6000    67.4409   103.2079    16.6287     5.6598     5.7573   -38.6803     8.5000     2.6509    -0.0019   -99999.0 
   1969.8000    67.1716   101.1283    15.2662     5.4776     5.7886   -39.0214     8.5000     2.6419     0.0001   -99999.0 
   1970.0000    66.1738    98.4758    13.9237     5.0991     5.7468   -39.4684     8.5000     2.6308     0.0082   -99999.0 
   1970.2000    64.9453   102.4566    15.3636     4.6932     5.6949   -40.1354     8.5000     2.6263     0.0145   -99999.0 
   1970.4000    66.8395   110.4179    20.6216     4.3859     5.5841   -41.2207     8.5085     2.6211     0.0075   -99999.0 
   1970.6000    74.0575   120.4336    24.2875     4.2575     5.4731   -42.1779     8.4907     2.6141    -0.0042   -99999.0 
   1970.8000    80.6248   124.0327    24.3158     4.2364     5.3747   -43.1980     8.5110     2.6120    -0.0103   -99999.0 
   1971.0000    81.6857   121.5341    22.7544     4.2356     5.3056   -43.9176     8.5209     2.6210    -0.0096   -99999.0 
   1971.2000    79.5394   119.1853    21.8459     4.2267     5.2674   -44.1400     8.5380     2.6326    -0.0048   -99999.0 
   1971.4000    76.4610   115.1059    21.2182     4.2267     5.2949   -44.2713     8.5357     2.6279    -0.0037   -99999.0 
   1971.6000    74.7900   114.1904    20.8279     4.2357     5.3604   -44.7100     8.5305     2.6098    -0.0048   -99999.0 
   1971.8000    74.5349   116.1040    22.4596     4.1814     5.4703   -45.2012     8.5500     2.6000     0.0060   -99999.0 
   1972.0000    75.7744   119.8154    24.7672     4.0454     5.4627   -45.7248     8.5370     2.5915     0.0159   -99999.0 
   1972.2000    77.6467   122.5782    26.2480     3.8946     5.3613   -46.4772     8.5300     2.5784     0.0083   -99999.0 
   1972.4000    79.3291   122.4109    25.3445     3.8282     5.2349   -47.4194     8.5445     2.5893    -0.0044   -99999.0 
   1972.6000    79.8480   118.6660    21.8191     3.8806     5.1859   -48.2933     8.5417     2.6201    -0.0086   -99999.0 
   1972.8000    78.2516   111.4366    16.6622     4.0834     5.2083   -49.1293     8.4871     2.6372    -0.0117   -99999.0 
   1973.0000    74.2703   108.7114    12.9526     4.4724     5.3870   -50.0690     8.4800     2.6337    -0.0140   -99999.0 
   1973.2000    68.5484   105.5244    10.5503     5.0780     5.6172   -51.0665     8.4800     2.6248    -0.0119   -99999.0 
   1973.4000    63.1562   100.4564     9.2481     5.8774     5.9652   -51.9016     8.4800     2.6068    -0.0067   -99999.0 
   1973.6000    60.4038    94.0706     8.8311     6.7841     6.3751   -52.7038     8.4800     2.5775     0.0002   -99999.0 
   1973.8000    61.3224    88.9681     8.0249     7.5713     6.7833   -53.6224     8.4800     2.5630     0.0102   -99999.0 
   1974.0000    61.8546    86.8348     6.8767     7.8722     7.0303   -54.5411     8.4568     2.5730     0.0132   -99999.0 
   1974.2000    62.3853    96.1246     7.6615     7.5887     7.1987   -55.5682     8.4800     2.5938     0.0041   -99999.0 
   1974.4000    64.1350   109.6612    10.5742     7.1338     7.2245   -56.6579     8.4800     2.6032    -0.0076   -99999.0 
   1974.6000    66.4650   118.2879    11.1879     6.8537     7.1593   -57.5550     8.4587     2.6064    -0.0079   -99999.0 
   1974.8000    66.9754   111.8105     9.4983     6.6295     7.1118   -58.6268     8.4793     2.6037     0.0001   -99999.0 
   1975.0000    64.8961    88.3974     7.0911     6.1134     7.0740   -60.2016     8.4500     2.5816     0.0063   -99999.0 
   1975.2000    61.4119    67.7045     5.1572     5.4128     6.9580   -61.4529     8.4500     2.5430     0.0109   -99999.0 
   1975.4000    60.4081    56.6311     4.3942     4.6888     6.9183   -62.7552     8.4500     2.4945     0.0110   -99999.0 
   1975.6000    61.2260    55.6718     5.9548     4.0362     6.7812   -64.3260     8.4527     2.4533     0.0044   -99999.0 
   1975.8000    63.2680    58.4615     8.3365     3.4714     6.5272   -65.4920     8.4542     2.4357    -0.0029   -99999.0 
   1976.0000    65.7134    64.2291    10.6045     3.0061     6.1676   -65.9689     8.4500     2.4430    -0.0059   -99999.0 
   1976.2000    68.1382    69.6668    11.1837     2.6774     5.7319   -66.2791     8.4563     2.4570    -0.0036   -99999.0 
   1976.4000    70.5815    73.4272    11.2642     2.4585     5.3792   -66.2000     8.5425     2.4502    -0.0015   -99999.0 
   1976.6000    71.3833    72.2301    11.4100     2.3079     5.1526   -66.2000     8.6167     2.4315     0.0040   -99999.0 
   1976.8000    70.9854    70.8396    11.6228     2.2189     4.9887   -66.1146     8.6215     2.4250     0.0175   -99999.0 
   1977.0000    71.0374    70.3544    12.1599     2.1928     4.8946   -66.1542     8.6437     2.4356     0.0274   -99999.0 
   1977.2000    71.8163    71.6319    12.2592     2.2084     4.8127   -65.8689     8.6446     2.4449     0.0228   -99999.0 
   1977.4000    72.6835    72.4006    11.5768     2.2516     4.7854   -65.5917     8.7008     2.4415     0.0051   -99999.0 
   1977.6000    72.0655    71.1238    11.2607     2.2950     4.7666   -65.3420     8.7218     2.4364    -0.0058   -99999.0 
   1977.8000    70.5512    70.9913    11.0639     2.3440     4.7689   -64.6049     8.6693     2.4455    -0.0042   -99999.0 
   1978.0000    69.4980    72.9780    11.3600     2.4172     4.7861   -63.7843     8.5100     2.4736    -0.0021   -99999.0 
   1978.2000    69.4996    75.0780    11.4762     2.5453     4.7608   -62.6680     8.5067     2.5160    -0.0093   -99999.0 
   1978.4000    69.7644    74.8493    12.0837     2.7162     4.7315   -61.1623     8.5000     2.5573    -0.0146   -99999.0 
   1978.6000    69.8957    78.0662    13.4285     2.9109     4.7315   -59.2650     8.5000     2.5852    -0.0093   -99999.0 
   1978.8000    70.4000    91.3163    14.2006     3.0657     4.7762   -56.8350     8.5000     2.5912    -0.0015   -99999.0 
