~VERSION INFORMATION                                                           
 VERS.           2.0: CWLS Log ASCII Standard - Version 2.0                    
 WRAP.            NO: One Line per Depth Step                                  
~WELL INFORMATION                                                              
#MNEM.UNIT              DATA            DESCRIPTION OF MNEMONIC                
#-----------            ----            -----------------------                
 STRT.MORRA           900.0000              :Start Depth                           
 STOP.M          2147.0000              :Stop  Depth                           
 STEP.M             0.2000              :Step                                  
 NULL.              -99999.0            :Null Value                            
 COMP.     PETROLEO BRASILEIRO S/A      :Company                               
 ORIG.     SIGEO EXPORTACAO PERFIL      :Origem dos dados                      
 WELL.     7FU  0128  AL                :Well                                  
 FLD.                                   :Field                                 
 LOC.                                   :Location                              
 STAT.                                  :State                                 
 SRVC.                                  :Service Company                       
 DATE.                                  :Log Date                              
 API.      081150370200                 :API Code                              
 X.              815480.800000          :Surface X                             
 Y.              8917272.700000         :Surface Y                             
 HZCS.           UTM                    :Horizontal Coordinate System          
 MC.               39 W                 :Meridiano Central
 LATI.             -9.782647            :Latitude                              
 LONG.            -36.124445            :Longitude                             
 GDAT.           SIRGAS2000             :Geodetic Datum                        
 EKB.M            27.0000               :Elevation Kelly Bushing               
 EGL.M            22.0000               :GROUND ELEVATION                      
~CURVE INFORMATION                                                             
 DEPT.M		                            :Measured Depth                        
 DT.us/ft                               :DELTA-T (ALSO CALLED SLOWNESS OR INTERVAL TRANSIT TIME) 
 GR.gAPI                                :GAMMA RAY 
 NPHI.%                                 :THERMAL NEUTRON POROSITY (ORIGINAL RATIO METHOD) IN SELECTED LITHOLOGY 
 ILD.ohm.m                              :INDUCTION DEEP RESISTIVITY 
 SN.ohm.m                               :SHORT NORMAL RESISTIVITY 
 SP.mV                                  :SPONTANEOUS POTENTIAL 
 CALI.in                                :CALIPER 
 RHOB.g/cm3                             :BULK DENSITY 
 DRHO.g/cm3                             :BULK DENSITIY CORRECTION 
 MSFL.ohm.m                             :MICRO-SPHERICALLY-FOCUSED RESISTIVITY 
~ASCII LOG DATA                                                                
# ...
   1225.0000    81.6000    92.1771    23.2297     2.7015     3.8660   -38.6150     9.3400     2.4421     0.0263   -99999.0 
   1225.2000    81.7549    89.7076    23.4390     2.5646     3.7577   -38.9161     9.3245     2.4448     0.0315   -99999.0 
   1225.4000    82.4197    90.2555    23.6429     2.4935     3.7034   -39.3098     9.2860     2.4383     0.0340   -99999.0 
   1225.6000    82.6000    89.4408    24.1718     2.4777     3.6983   -39.6012     9.2598     2.4159     0.0320   -99999.0 
   1225.8000    82.8269    83.0426    24.1514     2.5116     3.7038   -39.7000     9.2270     2.4079     0.0284   -99999.0 
   1226.0000    83.6819    75.9818    23.2781     2.5613     3.7372   -39.6364     9.1936     2.4222     0.0225   -99999.0 
   1226.2000    84.0898    74.5901    22.6479     2.6103     3.7662   -39.4102     9.1805     2.4394     0.0182   -99999.0 
   1226.4000    83.3388    77.2733    22.2096     2.6488     3.7867   -39.4739     9.1574     2.4458     0.0175   -99999.0 
   1226.6000    82.0265    84.9510    22.5507     2.6775     3.8133   -39.3427     9.1328     2.4590     0.0213   -99999.0 
   1226.8000    81.0685    84.5031    23.0809     2.7018     3.8518   -39.3886     9.1377     2.4730     0.0274   -99999.0 
   1227.0000    81.0594    82.5492    23.4851     2.7189     3.8477   -39.4000     9.1259     2.4702     0.0298   -99999.0 
   1227.2000    81.3000    84.5624    22.5920     2.7322     3.8548   -39.4000     9.1500     2.4579     0.0280   -99999.0 
   1227.4000    81.0531    87.3531    21.3313     2.7353     3.8548   -39.3177     9.1665     2.4489     0.0245   -99999.0 
   1227.6000    81.0000    86.2389    20.5162     2.7185     3.8649   -39.3730     9.1600     2.4512     0.0217   -99999.0 
   1227.8000    81.0447    86.0003    21.0272     2.6750     3.8686   -39.1553     9.1689     2.4603     0.0200   -99999.0 
   1228.0000    81.3279    87.9869    22.4038     2.6224     3.8569   -39.1000     9.1648     2.4567     0.0223   -99999.0 
   1228.2000    81.8144    92.7021    23.5650     2.5946     3.8446   -39.4072     9.1607     2.4344     0.0259   -99999.0 
   1228.4000    82.1538    94.3540    23.4147     2.6141     3.8148   -39.4231     9.1738     2.4094     0.0213   -99999.0 
   1228.6000    82.8181    89.7938    22.8540     2.6791     3.7871   -39.0909     9.1870     2.4069     0.0121   -99999.0 
   1228.8000    83.7000    83.5599    22.6110     2.7807     3.7758   -38.6000     9.1596     2.4322     0.0070   -99999.0 
   1229.0000    83.4106    82.8206    22.7425     2.9233     3.7957   -38.5678     9.1264     2.4628     0.0063   -99999.0 
   1229.2000    82.1661    88.3012    22.9231     3.0821     3.8362   -38.4366     9.1400     2.4801     0.0089   -99999.0 
   1229.4000    81.1376    93.6549    23.5961     3.2160     3.8965   -38.3054     9.1400     2.4849     0.0138   -99999.0 
   1229.6000    80.5707   100.4083    22.7156     3.2754     3.9426   -38.4517     9.1400     2.4804     0.0200   -99999.0 
   1229.8000    80.2000   105.1081    21.5917     3.2553     3.9628   -38.8283     9.1286     2.4726     0.0241   -99999.0 
   1230.0000    80.6416   106.4858    21.7398     3.1389     3.9467   -39.1767     9.1200     2.4621     0.0241   -99999.0 
   1230.2000    81.1782   106.8914    22.8536     2.9212     3.9159   -39.5978     9.0963     2.4516     0.0206   -99999.0 
   1230.4000    81.7031   107.0632    23.9344     2.6103     3.8501   -40.2539     9.0095     2.4525     0.0200   -99999.0 
   1230.6000    81.9820   106.8718    24.1444     2.2575     3.7923   -40.9101     8.9636     2.4558     0.0251   -99999.0 
   1230.8000    81.7602   106.3357    23.1130     1.9317     3.6997   -41.5663     8.9347     2.4332     0.0287   -99999.0 
   1231.0000    81.5000   102.2837    22.5487     1.6852     3.5432   -42.0890     8.9000     2.3842     0.0257   -99999.0 
   1231.2000    82.1058    93.8232    21.8178     1.5239     3.3454   -42.4272     8.8470     2.3393     0.0217   -99999.0 
   1231.4000    83.9461    75.0116    20.5889     1.4445     3.1163   -42.4722     8.6896     2.3119     0.0153   -99999.0 
   1231.6000    86.8547    65.2089    20.0018     1.4411     2.9467   -41.7563     8.5538     2.3218     0.0026   -99999.0 
   1231.8000    89.7884    59.6574    20.1274     1.5031     2.8840   -40.5752     8.5739     2.3840    -0.0030   -99999.0 
   1232.0000    90.4869    58.3320    20.0558     1.6456     2.9587   -39.3961     8.5604     2.4672     0.0030   -99999.0 
   1232.2000    87.3839    66.2477    19.2414     1.9099     3.1294   -38.5449     8.7029     2.5049     0.0090   -99999.0 
   1232.4000    82.8538    76.0373    19.3334     2.2794     3.3752   -37.6844     9.0315     2.5046     0.0123   -99999.0 
   1232.6000    80.3734    87.7714    20.7140     2.6982     3.5888   -37.2169     9.1766     2.4973     0.0158   -99999.0 
   1232.8000    81.2559   100.2440    21.6921     3.0720     3.7311   -37.0000     9.2149     2.5018     0.0180   -99999.0 
   1233.0000    82.3409   104.4045    22.3578     3.3526     3.8573   -36.9432     9.2114     2.5070     0.0163   -99999.0 
   1233.2000    82.8642   104.9683    23.5318     3.5709     3.9472   -36.9881     9.2552     2.4991     0.0106   -99999.0 
   1233.4000    82.7228   103.8214    23.7982     3.7407     4.0344   -37.0000     9.2161     2.4886     0.0086   -99999.0 
   1233.6000    82.1979   104.8010    23.2672     3.8240     4.0787   -37.0000     9.1949     2.4895     0.0130   -99999.0 
   1233.8000    82.0000   104.9217    22.6484     3.8012     4.1081   -37.1635     9.1655     2.5002     0.0166   -99999.0 
   1234.0000    81.9000   103.3162    22.8690     3.6598     4.1425   -37.2520     9.1774     2.5143     0.0160   -99999.0 
   1234.2000    82.0769   103.6279    22.9885     3.4085     4.1591   -37.8654     9.1423     2.5252     0.0160   -99999.0 
   1234.4000    82.6773   106.4180    22.7572     3.0252     4.1447   -38.8037     9.0898     2.5242     0.0152   -99999.0 
   1234.6000    82.9933   109.1977    22.7474     2.5393     4.1059   -39.7469     9.0400     2.5121     0.0143   -99999.0 
   1234.8000    82.8241   111.1629    23.5396     2.0675     3.9787   -40.8172     9.0021     2.4895     0.0214   -99999.0 
   1235.0000    81.9392   114.2399    24.0924     1.7089     3.7840   -42.1224     8.8985     2.4415     0.0325   -99999.0 
   1235.2000    79.2937   103.4487    22.3933     1.4787     3.4661   -43.3020     8.7994     2.3628     0.0330   -99999.0 
   1235.4000    78.1111    88.6678    20.5139     1.3545     3.0820   -43.7684     8.6020     2.2980     0.0172   -99999.0 
   1235.6000    81.4516    68.2015    20.2786     1.2934     2.8374   -43.4486     8.4760     2.2937     0.0052   -99999.0 
   1235.8000    86.0992    61.5326    20.4935     1.2907     2.7324   -43.3000     8.4406     2.3405     0.0030   -99999.0 
   1236.0000    86.8454    60.1880    19.0615     1.3646     2.7151   -42.4734     8.4251     2.4104     0.0095   -99999.0 
   1236.2000    84.7253    64.7441    17.8910     1.4847     2.8249   -41.9303     8.5079     2.4813     0.0174   -99999.0 
   1236.4000    82.6709    74.0580    18.6974     1.6070     3.0156   -41.8878     8.6302     2.5197     0.0253   -99999.0 
   1236.6000    81.5668    97.9993    21.5630     1.7057     3.1688   -42.1381     8.7838     2.4881     0.0280   -99999.0 
   1236.8000    80.5979   107.3867    22.8845     1.7765     3.2773   -42.5011     8.7397     2.4194     0.0250   -99999.0 
   1237.0000    80.3630   102.1612    22.7655     1.8193     3.2715   -42.7000     8.6311     2.3702     0.0155   -99999.0 
   1237.2000    82.0164    81.2174    21.8462     1.8382     3.2137   -42.6127     8.5300     2.3744     0.0073   -99999.0 
   1237.4000    83.8077    74.0768    21.3224     1.8644     3.2333   -42.7440     8.5168     2.4077     0.0125   -99999.0 
   1237.6000    83.8992    79.4796    21.5256     1.9233     3.3039   -42.6496     8.5376     2.4192     0.0253   -99999.0 
   1237.8000    82.9678    88.2014    21.6883     2.0136     3.4518   -42.8000     8.6987     2.4023     0.0361   -99999.0 
