~VERSION INFORMATION                                                           
 VERS.           2.0: CWLS Log ASCII Standard - Version 2.0                    
 WRAP.            NO: One Line per Depth Step                                  
~WELL INFORMATION                                                              
#MNEM.UNIT              DATA            DESCRIPTION OF MNEMONIC                
#-----------            ----            -----------------------                
 STRT.MORRA           900.0000              :Start Depth                           
 STOP.M          2147.0000              :Stop  Depth                           
 STEP.M             0.2000              :Step                                  
 NULL.              -99999.0            :Null Value                            
 COMP.     PETROLEO BRASILEIRO S/A      :Company                               
 ORIG.     SIGEO EXPORTACAO PERFIL      :Origem dos dados                      
 WELL.     7FU  0128  AL                :Well                                  
 FLD.                                   :Field                                 
 LOC.                                   :Location                              
 STAT.                                  :State                                 
 SRVC.                                  :Service Company                       
 DATE.                                  :Log Date                              
 API.      081150370200                 :API Code                              
 X.              815480.800000          :Surface X                             
 Y.              8917272.700000         :Surface Y                             
 HZCS.           UTM                    :Horizontal Coordinate System          
 MC.               39 W                 :Meridiano Central
 LATI.             -9.782647            :Latitude                              
 LONG.            -36.124445            :Longitude                             
 GDAT.           SIRGAS2000             :Geodetic Datum                        
 EKB.M            27.0000               :Elevation Kelly Bushing               
 EGL.M            22.0000               :GROUND ELEVATION                      
~CURVE INFORMATION                                                             
 DEPT.M		                            :Measured Depth                        
 DT.us/ft                               :DELTA-T (ALSO CALLED SLOWNESS OR INTERVAL TRANSIT TIME) 
 GR.gAPI                                :GAMMA RAY 
 NPHI.%                                 :THERMAL NEUTRON POROSITY (ORIGINAL RATIO METHOD) IN SELECTED LITHOLOGY 
 ILD.ohm.m                              :INDUCTION DEEP RESISTIVITY 
 SN.ohm.m                               :SHORT NORMAL RESISTIVITY 
 SP.mV                                  :SPONTANEOUS POTENTIAL 
 CALI.in                                :CALIPER 
 RHOB.g/cm3                             :BULK DENSITY 
 DRHO.g/cm3                             :BULK DENSITIY CORRECTION 
 MSFL.ohm.m                             :MICRO-SPHERICALLY-FOCUSED RESISTIVITY 
~ASCII LOG DATA                                                                
# ...
   1641.0000    72.9529    81.2465    16.6548     2.7318     4.0125   -43.9197     8.3673     2.5565    -0.0205   -99999.0 
   1641.2000    71.5092    83.0830    17.4444     3.1266     4.1649   -42.0449     8.3900     2.5700    -0.0170   -99999.0 
   1641.4000    71.9150    87.7222    18.3714     3.5328     4.3321   -40.5059     8.3900     2.5668    -0.0153   -99999.0 
   1641.6000    73.1047    96.3885    19.3535     3.8300     4.4917   -39.1965     8.3900     2.5617    -0.0120   -99999.0 
   1641.8000    75.1710   105.9547    20.6329     3.9885     4.6222   -38.3102     8.3900     2.5649    -0.0061   -99999.0 
   1642.0000    77.2905   114.5602    23.3147     4.0652     4.7150   -37.7819     8.4111     2.5629    -0.0039   -99999.0 
   1642.2000    80.4013   120.8941    26.6104     4.1756     4.7734   -37.4392     8.3900     2.5531    -0.0096   -99999.0 
   1642.4000    84.4438   127.6366    27.0448     4.3533     4.8168   -37.4920     8.4176     2.5445    -0.0166   -99999.0 
   1642.6000    86.0819   125.9358    22.4371     4.5609     4.8436   -38.0394     8.3823     2.5429    -0.0183   -99999.0 
   1642.8000    82.3581   116.6988    15.6322     4.7318     4.9422   -38.7723     8.3791     2.5509    -0.0111   -99999.0 
   1643.0000    75.2583    81.5260    10.3664     4.8722     5.0784   -39.5999     8.3700     2.5576     0.0024   -99999.0 
   1643.2000    66.9228    67.8030     7.1958     4.9737     5.2225   -40.2339     8.3651     2.5490     0.0052   -99999.0 
   1643.4000    63.6963    57.5130     6.6693     5.0008     5.3571   -40.2555     8.3900     2.5507     0.0000   -99999.0 
   1643.6000    64.7527    58.3593     8.3674     4.8720     5.3631   -39.8618     8.3900     2.5794     0.0046   -99999.0 
   1643.8000    66.5913    63.0222    11.5808     4.5879     5.3527   -38.8150     8.3843     2.6030     0.0141   -99999.0 
   1644.0000    68.8698    74.1471    15.9240     4.2968     5.2683   -37.6814     8.4074     2.5992     0.0129   -99999.0 
   1644.2000    71.1157    88.2177    19.7386     4.1114     5.1424   -36.5883     8.3827     2.5874     0.0056   -99999.0 
   1644.4000    74.7516   106.3623    22.5884     4.0357     5.0669   -35.8740     8.4200     2.5745    -0.0022   -99999.0 
   1644.6000    78.9180   113.4957    24.8108     4.0245     4.9800   -35.2289     8.4200     2.5615    -0.0060   -99999.0 
   1644.8000    81.8027   120.9884    26.3813     4.0803     4.9279   -34.8996     8.4200     2.5583    -0.0033   -99999.0 
   1645.0000    84.9508   130.7368    26.7788     4.2242     4.9204   -34.8980     8.3906     2.5688     0.0009   -99999.0 
   1645.2000    86.1244   132.9669    25.6283     4.4468     4.9646   -34.7585     8.3700     2.5789    -0.0019   -99999.0 
   1645.4000    84.3690   119.6005    23.6713     4.6747     5.0379   -35.0210     8.3700     2.5816    -0.0052   -99999.0 
   1645.6000    80.4728   111.7426    21.7508     4.8953     5.1455   -35.1917     8.3608     2.5866    -0.0060   -99999.0 
   1645.8000    77.4163   109.0390    20.9695     5.0908     5.2435   -35.3919     8.3454     2.5915    -0.0060   -99999.0 
   1646.0000    76.6916   107.6215    21.0261     5.2458     5.3221   -35.8626     8.3300     2.5930    -0.0049   -99999.0 
   1646.2000    76.0874   105.6175    19.9571     5.2741     5.3439   -36.3417     8.3556     2.5939    -0.0031   -99999.0 
   1646.4000    74.0667   102.3071    19.2117     5.1506     5.3190   -36.5333     8.3700     2.5998    -0.0020   -99999.0 
   1646.6000    72.0168    97.7430    18.5044     4.9204     5.2855   -36.8437     8.3700     2.6059    -0.0015   -99999.0 
   1646.8000    71.5209    93.9165    18.0801     4.6371     5.2315   -37.0000     8.3700     2.6096     0.0006   -99999.0 
   1647.0000    72.3695    94.5916    18.6105     4.3508     5.1153   -37.3207     8.3690     2.6064     0.0041   -99999.0 
   1647.2000    76.0728   103.1411    20.1789     4.0287     4.9251   -37.7496     8.3600     2.5981     0.0050   -99999.0 
   1647.4000    79.6024   112.1952    21.9175     3.6542     4.6925   -38.4642     8.3600     2.5867     0.0050   -99999.0 
   1647.6000    81.4000   117.2745    22.8372     3.2706     4.4701   -39.5407     8.3292     2.5618     0.0050   -99999.0 
   1647.8000    81.2588   119.1737    23.6706     2.9487     4.2571   -40.9942     8.3171     2.5252     0.0050   -99999.0 
   1648.0000    80.9335   118.7997    23.4145     2.6728     4.0807   -42.9646     8.3167     2.5050     0.0063   -99999.0 
   1648.2000    80.4111   110.7863    21.7999     2.4143     3.9025   -45.2598     8.2904     2.5079     0.0119   -99999.0 
   1648.4000    78.8810    98.7440    21.0809     2.1263     3.7619   -47.4060     8.1642     2.4893     0.0212   -99999.0 
   1648.6000    77.4976    97.4142    20.9469     1.8227     3.6661   -49.3035     8.1380     2.4299     0.0222   -99999.0 
   1648.8000    76.0938    92.5659    19.1318     1.5225     3.5484   -51.5465     8.1300     2.3668     0.0155   -99999.0 
   1649.0000    74.8730    76.5465    15.7254     1.2447     3.3866   -53.6270     8.0900     2.3379     0.0075   -99999.0 
   1649.2000    73.5606    56.4143    13.9024     1.0084     3.1978   -54.7236     8.0900     2.3329     0.0065   -99999.0 
   1649.4000    73.1000    35.6785    13.8440     0.8196     3.0073   -55.3407     8.0900     2.3277     0.0070   -99999.0 
   1649.6000    73.7148    32.6470    14.8858     0.6815     2.7885   -55.7492     8.1300     2.3170     0.0062   -99999.0 
   1649.8000    74.8717    34.1288    15.7610     0.5812     2.5661   -56.0000     8.1300     2.3106     0.0084   -99999.0 
   1650.0000    76.6042    35.5374    15.8815     0.5063     2.3833   -56.0000     8.1300     2.3074     0.0124   -99999.0 
   1650.2000    78.3010    34.4824    15.9345     0.4541     2.2626   -55.9899     8.0900     2.3023     0.0140   -99999.0 
   1650.4000    79.4480    34.4685    16.2142     0.4188     2.1813   -55.9827     8.1024     2.2931     0.0136   -99999.0 
   1650.6000    79.8726    35.6661    16.4564     0.3958     2.1221   -56.0274     8.0982     2.2839     0.0108   -99999.0 
   1650.8000    79.8924    35.1878    16.9732     0.3817     2.0884   -56.1886     8.0908     2.2748     0.0059   -99999.0 
   1651.0000    79.6299    33.3339    17.4899     0.3764     2.0555   -55.9000     8.1030     2.2706     0.0026   -99999.0 
   1651.2000    79.7651    31.4797    16.9888     0.3770     2.0370   -55.9000     8.1099     2.2727     0.0020   -99999.0 
   1651.4000    80.2900    30.7055    16.3807     0.3818     2.0098   -55.8025     8.0907     2.2818     0.0020   -99999.0 
   1651.6000    80.3862    31.8602    15.8270     0.3931     1.9835   -55.8575     8.1357     2.2930     0.0020   -99999.0 
   1651.8000    80.7799    33.5964    16.0399     0.4099     1.9715   -56.1799     8.1500     2.2998     0.0026   -99999.0 
   1652.0000    80.6264    34.3009    16.2565     0.4320     1.9596   -56.3000     8.1409     2.3001     0.0057   -99999.0 
   1652.2000    79.9102    33.1624    16.0449     0.4557     1.9679   -56.0327     8.1545     2.2917     0.0094   -99999.0 
   1652.4000    79.8147    33.7416    16.1785     0.4783     1.9728   -55.6927     8.1807     2.2859     0.0126   -99999.0 
   1652.6000    80.8491    35.9625    16.6100     0.5059     1.9847   -55.5151     8.2070     2.2858     0.0140   -99999.0 
   1652.8000    82.2291    37.5818    17.0890     0.5508     2.0091   -55.0354     8.2300     2.2873     0.0090   -99999.0 
   1653.0000    82.9947    38.0236    16.9800     0.6214     1.9939   -54.5105     8.2489     2.2956     0.0012   -99999.0 
   1653.2000    82.9428    37.3817    16.6577     0.7204     1.9770   -53.8284     8.2700     2.3329    -0.0051   -99999.0 
   1653.4000    82.6212    38.3095    15.6286     0.8463     1.9810   -53.2114     8.2700     2.4156    -0.0032   -99999.0 
   1653.6000    81.2838    41.2724    13.6694     0.9914     2.0475   -52.0303     8.2700     2.5064     0.0089   -99999.0 
   1653.8000    78.5199    46.2500    12.9149     1.1351     2.1678   -50.7769     8.3423     2.5363     0.0247   -99999.0 
