~VERSION INFORMATION                                                           
 VERS.           2.0: CWLS Log ASCII Standard - Version 2.0                    
 WRAP.            NO: One Line per Depth Step                                  
~WELL INFORMATION                                                              
#MNEM.UNIT              DATA            DESCRIPTION OF MNEMONIC                
#-----------            ----            -----------------------                
 STRT.MORRA           900.0000              :Start Depth                           
 STOP.M          2147.0000              :Stop  Depth                           
 STEP.M             0.2000              :Step                                  
 NULL.              -99999.0            :Null Value                            
 COMP.     PETROLEO BRASILEIRO S/A      :Company                               
 ORIG.     SIGEO EXPORTACAO PERFIL      :Origem dos dados                      
 WELL.     7FU  0128  AL                :Well                                  
 FLD.                                   :Field                                 
 LOC.                                   :Location                              
 STAT.                                  :State                                 
 SRVC.                                  :Service Company                       
 DATE.                                  :Log Date                              
 API.      081150370200                 :API Code                              
 X.              815480.800000          :Surface X                             
 Y.              8917272.700000         :Surface Y                             
 HZCS.           UTM                    :Horizontal Coordinate System          
 MC.               39 W                 :Meridiano Central
 LATI.             -9.782647            :Latitude                              
 LONG.            -36.124445            :Longitude                             
 GDAT.           SIRGAS2000             :Geodetic Datum                        
 EKB.M            27.0000               :Elevation Kelly Bushing               
 EGL.M            22.0000               :GROUND ELEVATION                      
~CURVE INFORMATION                                                             
 DEPT.M		                            :Measured Depth                        
 DT.us/ft                               :DELTA-T (ALSO CALLED SLOWNESS OR INTERVAL TRANSIT TIME) 
 GR.gAPI                                :GAMMA RAY 
 NPHI.%                                 :THERMAL NEUTRON POROSITY (ORIGINAL RATIO METHOD) IN SELECTED LITHOLOGY 
 ILD.ohm.m                              :INDUCTION DEEP RESISTIVITY 
 SN.ohm.m                               :SHORT NORMAL RESISTIVITY 
 SP.mV                                  :SPONTANEOUS POTENTIAL 
 CALI.in                                :CALIPER 
 RHOB.g/cm3                             :BULK DENSITY 
 DRHO.g/cm3                             :BULK DENSITIY CORRECTION 
 MSFL.ohm.m                             :MICRO-SPHERICALLY-FOCUSED RESISTIVITY 
~ASCII LOG DATA                                                                
# ...
   1472.0000    92.8619   124.7335    31.5659     3.3884     4.1025   -33.4619    10.1872     2.4034     0.0411   -99999.0 
   1472.2000    90.6362   125.5570    30.1880     3.5882     4.1697   -33.6488     9.9890     2.4962     0.0051   -99999.0 
   1472.4000    85.6059   123.0686    26.4751     3.8591     4.2676   -34.0434     9.1808     2.5514     0.0012   -99999.0 
   1472.6000    81.7572   114.8283    23.8166     4.1887     4.3550   -34.2493     8.6776     2.5657     0.0152   -99999.0 
   1472.8000    80.8882   113.1707    22.7435     4.5520     4.5163   -34.6118     8.6694     2.5432     0.0329   -99999.0 
   1473.0000    80.6629   113.9152    22.6434     4.7779     4.6772   -34.9114     8.6600     2.5098     0.0264   -99999.0 
   1473.2000    80.8051   112.6968    22.7832     4.7668     4.7690   -35.1000     8.6463     2.5113     0.0061   -99999.0 
   1473.4000    80.4020   108.0690    22.3514     4.5611     4.8193   -35.3988     8.6300     2.5449    -0.0050   -99999.0 
   1473.6000    80.4850   106.6317    22.5119     4.3065     4.8537   -35.7925     8.6331     2.5679    -0.0034   -99999.0 
   1473.8000    81.0862   108.7183    23.6152     4.1383     4.8031   -36.3104     8.6276     2.5714    -0.0014   -99999.0 
   1474.0000    81.6665   112.1508    24.0960     4.0582     4.7863   -36.9665     8.6293     2.5719     0.0037   -99999.0 
   1474.2000    82.1754   111.8869    22.9075     4.0204     4.7480   -37.6227     8.6300     2.5787     0.0177   -99999.0 
   1474.4000    81.9327   110.2491    22.7789     3.9537     4.7254   -38.6693     8.6244     2.5834     0.0346   -99999.0 
   1474.6000    82.0610   111.0239    23.9397     3.7342     4.7112   -40.2441     8.5939     2.5647     0.0381   -99999.0 
   1474.8000    81.0710   109.9294    23.0991     3.3161     4.6783   -41.4371     8.6000     2.5163     0.0291   -99999.0 
   1475.0000    76.7705    97.3084    18.5669     2.8733     4.6134   -42.8958     8.5753     2.4637     0.0240   -99999.0 
   1475.2000    72.8630    68.3642    14.1759     2.5328     4.5327   -43.9457     8.5258     2.4192     0.0190   -99999.0 
   1475.4000    71.9388    51.1904    13.4114     2.3150     4.3451   -44.1642     8.5112     2.3886     0.0064   -99999.0 
   1475.6000    75.5134    50.5358    16.0710     2.1836     4.1002   -43.7273     8.5200     2.3998    -0.0110   -99999.0 
   1475.8000    80.4299    55.9208    18.5171     2.1053     3.8259   -42.9047     8.5274     2.4649    -0.0220   -99999.0 
   1476.0000    85.9555    60.0432    19.5710     2.1028     3.6898   -41.4323     8.5500     2.5495    -0.0134   -99999.0 
   1476.2000    91.5681    70.6948    20.6395     2.2209     3.7151   -39.8944     8.5906     2.5987     0.0003   -99999.0 
   1476.4000    84.7339    86.6502    22.5199     2.4561     3.8240   -38.5870     8.6872     2.6195     0.0087   -99999.0 
   1476.6000    75.3427   102.4306    23.2779     2.7780     3.9711   -37.9026     8.7000     2.6250     0.0090   -99999.0 
   1476.8000    75.6396   110.0039    23.6711     3.0769     4.0543   -37.4083     8.7061     2.6089     0.0051   -99999.0 
   1477.0000    82.7594   114.0434    23.4178     3.2806     4.0971   -37.2000     8.7324     2.5814     0.0018   -99999.0 
   1477.2000    88.0261   110.3313    22.4368     3.3841     4.1647   -37.2000     8.7586     2.5618    -0.0009   -99999.0 
   1477.4000    79.7190    99.3343    20.0703     3.3946     4.2241   -37.4000     8.7800     2.5662     0.0025   -99999.0 
   1477.6000    74.2673    90.7398    18.4524     3.3059     4.2408   -37.4000     8.7800     2.5741     0.0114   -99999.0 
   1477.8000    74.2072    91.5502    19.0194     3.1126     4.2111   -37.4000     8.7800     2.5603     0.0176   -99999.0 
   1478.0000    76.5596    95.1418    20.6346     2.8714     4.0930   -38.0258     8.7800     2.5140     0.0126   -99999.0 
   1478.2000    78.8398    94.7880    21.3301     2.6507     3.9461   -38.9937     8.7800     2.4697     0.0040   -99999.0 
   1478.4000    79.6609    86.1510    21.3361     2.4876     3.7825   -39.7218     8.7961     2.4554     0.0060   -99999.0 
   1478.6000    79.8584    80.2744    21.2523     2.3876     3.6482   -40.1000     8.8000     2.4688     0.0166   -99999.0 
   1478.8000    80.4716    78.3674    21.1069     2.3373     3.5681   -40.1429     8.7957     2.4867     0.0214   -99999.0 
   1479.0000    80.6258    78.2105    21.3497     2.3481     3.5219   -40.1259     8.7826     2.5012     0.0213   -99999.0 
   1479.2000    80.0731    79.7638    21.2560     2.4331     3.5250   -40.1054     8.7778     2.5130     0.0255   -99999.0 
   1479.4000    79.3071    82.4599    20.8855     2.6044     3.5662   -40.2000     8.7400     2.5090     0.0379   -99999.0 
   1479.6000    78.1894    82.7115    19.9508     2.8171     3.6314   -40.4035     8.7400     2.4911     0.0410   -99999.0 
   1479.8000    77.1073    76.4530    18.9065     3.0117     3.7147   -40.4009     8.7400     2.4751     0.0261   -99999.0 
   1480.0000    75.7362    68.0002    17.0610     3.1476     3.8519   -40.2697     8.7309     2.4739     0.0115   -99999.0 
   1480.2000    74.2845    62.1203    15.2030     3.2879     3.9544   -39.8923     8.6608     2.4791     0.0086   -99999.0 
   1480.4000    73.6216    63.6927    15.2125     3.4875     4.0578   -39.4217     8.6207     2.4903     0.0099   -99999.0 
   1480.6000    74.9602    70.8127    17.2030     3.7423     4.2161   -38.9520     8.6372     2.5072     0.0157   -99999.0 
   1480.8000    76.5972    79.8280    18.8283     3.9518     4.3328   -38.6342     8.6489     2.5033     0.0243   -99999.0 
   1481.0000    77.1730    89.9384    19.3005     4.0650     4.4251   -38.5000     8.6227     2.4745     0.0261   -99999.0 
   1481.2000    76.4228    93.7586    18.7679     4.1020     4.5249   -38.6823     8.5982     2.4510     0.0137   -99999.0 
   1481.4000    75.3063    85.4903    17.9239     4.0974     4.6339   -38.6000     8.5753     2.4598    -0.0009   -99999.0 
   1481.6000    74.5991    81.9267    16.9046     4.0700     4.7012   -38.2793     8.5520     2.4923    -0.0058   -99999.0 
   1481.8000    74.6571    84.7389    16.6967     3.9972     4.7266   -37.9543     8.5800     2.5336    -0.0012   -99999.0 
   1482.0000    75.1426    89.6495    17.9756     3.8555     4.6471   -37.4294     8.6056     2.5549     0.0059   -99999.0 
   1482.2000    75.4216   103.9944    19.5362     3.6647     4.5301   -37.2000     8.6843     2.5449     0.0048   -99999.0 
   1482.4000    75.6846   113.2813    20.2923     3.4348     4.4319   -37.5205     8.6800     2.5267     0.0033   -99999.0 
   1482.6000    75.2546   111.6356    20.2300     3.2199     4.3406   -38.0818     8.6873     2.5205     0.0124   -99999.0 
   1482.8000    74.8648   102.8064    20.7485     3.0497     4.2951   -38.5352     8.7000     2.5106     0.0301   -99999.0 
   1483.0000    74.7012    92.8489    20.6928     2.9452     4.2467   -39.0941     8.7000     2.4872     0.0459   -99999.0 
   1483.2000    74.3896    86.4100    18.0558     2.9829     4.2111   -39.8503     8.6249     2.4514     0.0463   -99999.0 
   1483.4000    73.3484    78.9152    15.4288     3.0975     4.1858   -40.3226     8.4710     2.4137     0.0308   -99999.0 
   1483.6000    72.8150    65.6441    14.3922     3.1333     4.1253   -40.5850     8.4400     2.3984     0.0157   -99999.0 
   1483.8000    72.9475    56.7698    14.4065     2.9192     4.0556   -40.2575     8.4224     2.4047     0.0363   -99999.0 
   1484.0000    73.1550    54.8356    14.3836     2.5969     3.9818   -39.4151     8.4300     2.3511     0.0913   -99999.0 
   1484.2000    72.9413    66.5687    13.7589     2.3829     3.8672   -38.4965     8.7835     2.2091     0.1344   -99999.0 
   1484.4000    71.9585    81.3892    14.3419     2.4181     3.7405   -37.6302    10.3462     2.0866     0.1268   -99999.0 
   1484.6000    81.3189    93.3748    19.9659     2.6053     3.6519   -37.1539    10.6891     2.1001     0.0820   -99999.0 
   1484.8000   100.3083   100.3752    30.9530     2.7140     3.7154   -37.0000    11.5674     2.2479     0.0314   -99999.0 
