~VERSION INFORMATION                                                           
 VERS.           2.0: CWLS Log ASCII Standard - Version 2.0                    
 WRAP.            NO: One Line per Depth Step                                  
~WELL INFORMATION                                                              
#MNEM.UNIT              DATA            DESCRIPTION OF MNEMONIC                
#-----------            ----            -----------------------                
 STRT.MORRA           900.0000              :Start Depth                           
 STOP.M          2147.0000              :Stop  Depth                           
 STEP.M             0.2000              :Step                                  
 NULL.              -99999.0            :Null Value                            
 COMP.     PETROLEO BRASILEIRO S/A      :Company                               
 ORIG.     SIGEO EXPORTACAO PERFIL      :Origem dos dados                      
 WELL.     7FU  0128  AL                :Well                                  
 FLD.                                   :Field                                 
 LOC.                                   :Location                              
 STAT.                                  :State                                 
 SRVC.                                  :Service Company                       
 DATE.                                  :Log Date                              
 API.      081150370200                 :API Code                              
 X.              815480.800000          :Surface X                             
 Y.              8917272.700000         :Surface Y                             
 HZCS.           UTM                    :Horizontal Coordinate System          
 MC.               39 W                 :Meridiano Central
 LATI.             -9.782647            :Latitude                              
 LONG.            -36.124445            :Longitude                             
 GDAT.           SIRGAS2000             :Geodetic Datum                        
 EKB.M            27.0000               :Elevation Kelly Bushing               
 EGL.M            22.0000               :GROUND ELEVATION                      
~CURVE INFORMATION                                                             
 DEPT.M		                            :Measured Depth                        
 DT.us/ft                               :DELTA-T (ALSO CALLED SLOWNESS OR INTERVAL TRANSIT TIME) 
 GR.gAPI                                :GAMMA RAY 
 NPHI.%                                 :THERMAL NEUTRON POROSITY (ORIGINAL RATIO METHOD) IN SELECTED LITHOLOGY 
 ILD.ohm.m                              :INDUCTION DEEP RESISTIVITY 
 SN.ohm.m                               :SHORT NORMAL RESISTIVITY 
 SP.mV                                  :SPONTANEOUS POTENTIAL 
 CALI.in                                :CALIPER 
 RHOB.g/cm3                             :BULK DENSITY 
 DRHO.g/cm3                             :BULK DENSITIY CORRECTION 
 MSFL.ohm.m                             :MICRO-SPHERICALLY-FOCUSED RESISTIVITY 
~ASCII LOG DATA                                                                
# ...
   1394.0000    77.4989   113.6015    23.5000     6.0534     4.9544   -27.8004     8.6600     2.5620     0.0310   -99999.0 
   1394.2000    78.8000   114.3912    23.2620     5.6726     5.0379   -27.9933     8.6669     2.5578     0.0294   -99999.0 
   1394.4000    78.3636   112.8946    22.3290     5.2652     5.0918   -28.2623     8.6600     2.5569     0.0286   -99999.0 
   1394.6000    78.0064   111.3197    21.1572     5.0433     5.1161   -28.4871     8.6694     2.5674     0.0346   -99999.0 
   1394.8000    78.3240   112.9887    21.1289     4.9518     5.1168   -28.4248     8.6450     2.5782     0.0415   -99999.0 
   1395.0000    78.8681   115.8140    21.7237     4.8651     5.1036   -28.6121     8.6600     2.5751     0.0424   -99999.0 
   1395.2000    79.4363   117.8919    21.5982     4.7632     5.0729   -28.8745     8.6600     2.5633     0.0376   -99999.0 
   1395.4000    79.3150   109.9921    20.4849     4.6674     5.0423   -29.1185     8.6763     2.5531     0.0328   -99999.0 
   1395.6000    78.1518   100.6451    19.5120     4.6080     5.0062   -29.2497     8.6600     2.5465     0.0310   -99999.0 
   1395.8000    77.8810    94.5053    18.8547     4.5749     4.9610   -29.3810     8.6600     2.5391     0.0268   -99999.0 
   1396.0000    77.8756    95.1132    18.9452     4.5473     4.9050   -29.8366     8.6563     2.5340     0.0242   -99999.0 
   1396.2000    77.7434    97.8811    19.7603     4.5199     4.8704   -30.1434     8.6343     2.5331     0.0269   -99999.0 
   1396.4000    78.0240   101.5220    20.2585     4.4850     4.8308   -30.2747     8.6549     2.5260     0.0280   -99999.0 
   1396.6000    78.5118   105.3801    21.3376     4.4211     4.7947   -30.7177     8.7006     2.5093     0.0259   -99999.0 
   1396.8000    78.6257   107.7765    21.2814     4.3011     4.7331   -31.1486     8.7100     2.4986     0.0244   -99999.0 
   1397.0000    78.2265   104.2924    20.9970     4.1094     4.6622   -31.6735     8.7100     2.5014     0.0277   -99999.0 
   1397.2000    77.8012    93.2784    19.8042     3.8644     4.5503   -32.3976     8.7200     2.5010     0.0290   -99999.0 
   1397.4000    77.4692    88.0235    19.3824     3.6243     4.4725   -33.0234     8.7338     2.4824     0.0251   -99999.0 
   1397.6000    77.3379    87.1647    19.6490     3.4318     4.3595   -33.6724     8.7324     2.4644     0.0242   -99999.0 
   1397.8000    77.3933    86.3337    19.6187     3.2596     4.2424   -34.2732     8.7213     2.4610     0.0287   -99999.0 
   1398.0000    77.5509    82.8833    19.0097     3.0773     4.1382   -34.8736     8.7175     2.4620     0.0305   -99999.0 
   1398.2000    77.2884    78.1570    18.7738     2.9080     4.0375   -35.2115     8.7100     2.4551     0.0279   -99999.0 
   1398.4000    77.1130    75.9250    19.0105     2.7843     3.9608   -35.3870     8.7187     2.4503     0.0261   -99999.0 
   1398.6000    77.4730    73.3544    19.5073     2.7170     3.9248   -35.8182     8.7200     2.4609     0.0291   -99999.0 
   1398.8000    77.8989    72.0688    19.5004     2.6885     3.9219   -35.9495     8.7200     2.4804     0.0360   -99999.0 
   1399.0000    78.0000    71.1389    19.5972     2.6804     3.9264   -35.9193     8.7200     2.4918     0.0364   -99999.0 
   1399.2000    77.7283    74.7787    19.3244     2.6610     3.9511   -35.9119     8.7200     2.5010     0.0270   -99999.0 
   1399.4000    76.6819    74.5954    18.0242     2.5773     4.0275   -36.0000     8.7200     2.5251     0.0213   -99999.0 
   1399.6000    74.0654    70.6630    16.2578     2.4431     4.1492   -36.0744     8.7200     2.5392     0.0319   -99999.0 
   1399.8000    69.6815    67.4613    14.6339     2.3138     4.2588   -36.4056     8.7200     2.5083     0.0451   -99999.0 
   1400.0000    68.2531    65.0316    15.6462     2.2428     4.2980   -36.6475     8.7200     2.4478     0.0438   -99999.0 
   1400.2000    71.7882    63.8488    17.3840     2.2198     4.2256   -36.9681     8.7200     2.4037     0.0346   -99999.0 
   1400.4000    76.5764    64.9269    18.8533     2.2233     4.0468   -37.0000     8.7399     2.3950     0.0260   -99999.0 
   1400.6000    79.7669    67.3739    19.2396     2.2768     3.8956   -36.2471     8.7461     2.4173     0.0214   -99999.0 
   1400.8000    80.4764    70.2790    18.7002     2.4169     3.8350   -35.4055     8.7600     2.4513     0.0212   -99999.0 
   1401.0000    79.8417    73.6919    18.6758     2.6762     3.8695   -34.6348     8.7600     2.4843     0.0239   -99999.0 
   1401.2000    78.8815    80.2563    19.4874     3.1325     3.9691   -33.8300     8.7600     2.5045     0.0248   -99999.0 
   1401.4000    77.8114    88.1636    20.0820     3.8321     4.1087   -33.1890     8.7600     2.5101     0.0246   -99999.0 
   1401.6000    77.2398    94.5836    20.4961     4.7256     4.2262   -32.6663     8.7600     2.5119     0.0285   -99999.0 
   1401.8000    76.2483    91.8288    18.9857     5.3289     4.3106   -32.1640     8.7746     2.5091     0.0354   -99999.0 
   1402.0000    74.6079    85.6946    18.5198     5.0247     4.3400   -31.7047     8.7451     2.4596     0.0365   -99999.0 
   1402.2000    73.4564    84.7254    19.3666     4.1352     4.2892   -30.9173     8.7561     2.2941     0.0408   -99999.0 
   1402.4000    71.2496    84.6279    20.1559     3.3406     4.1351   -30.1416     8.7520     2.0640     0.0724   -99999.0 
   1402.6000    70.4882    84.3383    21.8243     2.8580     3.8404   -29.4854    10.2158     1.9498     0.1189   -99999.0 
   1402.8000    85.0860    89.5706    26.2014     2.5092     3.4548   -28.9776    11.8438     1.9924     0.1501   -99999.0 
   1403.0000   106.0165   101.9022    32.1102     2.1538     3.2726   -28.8785    11.8999     2.1260     0.1758   -99999.0 
   1403.2000   116.0886   111.2622    35.3935     1.8410     3.2285   -28.4268    12.4221     2.1985     0.1904   -99999.0 
   1403.4000   113.7291   113.5100    35.2507     1.6642     3.0941   -28.1643    11.8244     2.1711     0.1856   -99999.0 
   1403.6000   103.4772   110.1802    36.7050     1.6556     2.9792   -27.9018    11.6081     2.0767     0.1662   -99999.0 
   1403.8000   104.1279   107.0173    40.4563     1.8384     3.0107   -27.8697    13.1348     1.9063     0.1230   -99999.0 
   1404.0000   110.8081   106.1667    42.4370     2.1737     3.0997   -27.8616    13.1777     1.7575     0.0665   -99999.0 
   1404.2000   113.5206   107.0081    41.3610     2.6454     3.1795   -28.3639    12.5535     1.7520     0.0175   -99999.0 
   1404.4000   114.0118   107.9300    40.2534     3.1571     3.3200   -28.7961    12.2847     1.9393    -0.0082   -99999.0 
   1404.6000   110.2823   103.7943    36.7448     3.6187     3.4907   -29.5972    10.7929     2.1964    -0.0002   -99999.0 
   1404.8000   103.2434    91.1709    30.6580     4.0323     3.6341   -30.6919     8.9806     2.3848     0.0234   -99999.0 
   1405.0000    95.5610    72.7041    23.1045     4.3804     3.8790   -31.6240     8.8282     2.4473     0.0331   -99999.0 
   1405.2000    92.1300    68.0266    19.2083     4.4427     4.1630   -32.3468     8.8200     2.4371     0.0256   -99999.0 
   1405.4000    94.5433    66.4874    18.5926     4.0907     4.2955   -32.5000     8.8841     2.4332     0.0204   -99999.0 
   1405.6000    87.0921    65.7077    20.1073     3.5228     4.3141   -32.3658     8.9423     2.4574     0.0220   -99999.0 
   1405.8000    81.2588    66.6228    21.8044     3.1108     4.3095   -31.8867     8.9771     2.4811     0.0220   -99999.0 
   1406.0000    80.7261    71.3112    22.9490     2.9469     4.3373   -31.3045     9.0591     2.4924     0.0220   -99999.0 
   1406.2000    80.6846    79.7172    23.2523     2.9926     4.3980   -30.8846     9.1195     2.4982     0.0221   -99999.0 
   1406.4000    80.2182    85.9491    22.9900     3.1906     4.4726   -30.4546     9.1282     2.5038     0.0234   -99999.0 
   1406.6000    79.8324    89.7979    22.7529     3.4251     4.5682   -29.9973     9.2141     2.5131     0.0254   -99999.0 
   1406.8000    79.7012    92.6335    23.2736     3.6373     4.6870   -29.7024     9.2202     2.5269     0.0300   -99999.0 
