~VERSION INFORMATION                                                           
 VERS.           2.0: CWLS Log ASCII Standard - Version 2.0                    
 WRAP.            NO: One Line per Depth Step                                  
~WELL INFORMATION                                                              
#MNEM.UNIT              DATA            DESCRIPTION OF MNEMONIC                
#-----------            ----            -----------------------                
 STRT.MORRA           900.0000              :Start Depth                           
 STOP.M          2147.0000              :Stop  Depth                           
 STEP.M             0.2000              :Step                                  
 NULL.              -99999.0            :Null Value                            
 COMP.     PETROLEO BRASILEIRO S/A      :Company                               
 ORIG.     SIGEO EXPORTACAO PERFIL      :Origem dos dados                      
 WELL.     7FU  0128  AL                :Well                                  
 FLD.                                   :Field                                 
 LOC.                                   :Location                              
 STAT.                                  :State                                 
 SRVC.                                  :Service Company                       
 DATE.                                  :Log Date                              
 API.      081150370200                 :API Code                              
 X.              815480.800000          :Surface X                             
 Y.              8917272.700000         :Surface Y                             
 HZCS.           UTM                    :Horizontal Coordinate System          
 MC.               39 W                 :Meridiano Central
 LATI.             -9.782647            :Latitude                              
 LONG.            -36.124445            :Longitude                             
 GDAT.           SIRGAS2000             :Geodetic Datum                        
 EKB.M            27.0000               :Elevation Kelly Bushing               
 EGL.M            22.0000               :GROUND ELEVATION                      
~CURVE INFORMATION                                                             
 DEPT.M		                            :Measured Depth                        
 DT.us/ft                               :DELTA-T (ALSO CALLED SLOWNESS OR INTERVAL TRANSIT TIME) 
 GR.gAPI                                :GAMMA RAY 
 NPHI.%                                 :THERMAL NEUTRON POROSITY (ORIGINAL RATIO METHOD) IN SELECTED LITHOLOGY 
 ILD.ohm.m                              :INDUCTION DEEP RESISTIVITY 
 SN.ohm.m                               :SHORT NORMAL RESISTIVITY 
 SP.mV                                  :SPONTANEOUS POTENTIAL 
 CALI.in                                :CALIPER 
 RHOB.g/cm3                             :BULK DENSITY 
 DRHO.g/cm3                             :BULK DENSITIY CORRECTION 
 MSFL.ohm.m                             :MICRO-SPHERICALLY-FOCUSED RESISTIVITY 
~ASCII LOG DATA                                                                
# ...
   2135.0000    67.9220   119.2368    18.8556     4.4956     4.1089     5.2034     7.8280     2.6076     0.0056   -99999.0 
   2135.2000    68.6579   111.2471    17.8671     5.0042     4.3284     6.3610     7.8148     2.6075     0.0050   -99999.0 
   2135.4000    69.1484   103.8396    17.0063     5.4426     4.5078     7.0312     7.8100     2.6148     0.0077   -99999.0 
   2135.6000    69.5860   101.8837    16.7293     5.6903     4.6116     7.4140     7.8044     2.6224     0.0080   -99999.0 
   2135.8000    69.3189   103.3949    16.9021     5.8052     4.6812     7.6358     7.7881     2.6250     0.0089   -99999.0 
   2136.0000    68.8705   104.6913    16.0472     5.8758     4.7239     8.2590     7.8100     2.6273     0.0138   -99999.0 
   2136.2000    68.0303   101.0290    14.2381     5.9482     4.7889     9.2465     7.7983     2.6298     0.0178   -99999.0 
   2136.4000    66.9661    97.1768    13.9054     6.0443     4.8325     9.9559     7.7622     2.6268     0.0148   -99999.0 
   2136.6000    66.5298   100.8011    16.4286     6.1449     4.8923    10.4106     7.7584     2.6257     0.0144   -99999.0 
   2136.8000    66.8101   108.8328    19.2889     6.1940     4.9319    11.0116     7.9731     2.6290     0.0221   -99999.0 
   2137.0000    67.8594   117.9437    20.6290     6.1337     4.9431    11.9307     7.7522     2.6287     0.0290   -99999.0 
   2137.2000    69.1113   127.7129    20.6597     5.9704     4.9286    12.6474     7.8225     2.6286     0.0323   -99999.0 
   2137.4000    70.2563   135.7972    21.1338     5.7120     4.8882    13.3757     7.8009     2.6319     0.0349   -99999.0 
   2137.6000    71.5374   141.3257    22.4312     5.4462     4.8078    14.0055     7.7918     2.6366     0.0396   -99999.0 
   2137.8000    72.6609   139.5425    23.8588     5.2118     4.7375    14.4728     7.7264     2.6456     0.0498   -99999.0 
   2138.0000    74.0661   136.7895    25.3539     5.0160     4.6619    14.8665     7.7766     2.6534     0.0611   -99999.0 
   2138.2000    75.9008   137.1748    26.8227     4.8620     4.5814    15.1803     7.7608     2.6448     0.0534   -99999.0 
   2138.4000    76.8026   140.3383    27.4228     4.7032     4.5075    15.6539     7.7092     2.6233     0.0323   -99999.0 
   2138.6000    77.3127   138.3763    26.5393     4.5407     4.4433    15.9651     7.6693     2.6043     0.0260   -99999.0 
   2138.8000    78.1551   135.4322    25.2576     4.3917     4.3697    16.3413     7.8354     2.5852     0.0286   -99999.0 
   2139.0000   -99999.0   139.8888    25.5221     4.2655     4.3217    16.5550     7.8819     2.5744     0.0274   -99999.0 
   2139.2000   -99999.0   142.1452    26.1001     4.1728     4.2752    16.5762     7.8243     2.5864     0.0381   -99999.0 
   2139.4000   -99999.0   138.2859    25.8607     4.1620     4.2531    16.8150     7.8045     2.6060     0.0544   -99999.0 
   2139.6000   -99999.0   135.0171    24.7445     4.2278     4.2245    17.2323     7.5137     2.6250     0.0598   -99999.0 
   2139.8000   -99999.0   131.4588    24.1732     4.3242     4.2433    17.6699     7.6507     2.6521     0.0659   -99999.0 
   2140.0000   -99999.0   126.5547    23.2393     4.3960     4.2567    17.8012     7.5931     2.6750     0.0801   -99999.0 
   2140.2000   -99999.0   125.4989    23.4166     4.4630     4.3281    17.9648     7.4953     2.6661     0.0837   -99999.0 
   2140.4000   -99999.0   127.3988    24.1391     4.5309     4.4002    18.1000     7.6027     2.6503     0.0746   -99999.0 
   2140.6000   -99999.0   131.1455    24.6685     4.5798     4.4647    18.1949     7.1764     2.6479     0.0606   -99999.0 
   2140.8000   -99999.0   135.8067    24.9851     4.6053     4.4744    18.3261     7.6137     2.6502     0.0499   -99999.0 
   2141.0000   -99999.0   -99999.0    24.6887     4.6071     4.4609    18.2853     7.9032     2.6440     0.0411   -99999.0 
   2141.2000   -99999.0   -99999.0    24.8074     4.5652     4.4475    18.3772     7.7007     2.6357     0.0381   -99999.0 
   2141.4000   -99999.0   -99999.0    24.6299     4.4732     4.4423    18.2802     7.7988     2.6324     0.0454   -99999.0 
   2141.6000   -99999.0   -99999.0    24.7466     4.3899     4.4363    18.2000     7.5365     2.6386     0.0627   -99999.0 
   2141.8000   -99999.0   -99999.0    24.8364     4.3652     4.4463    18.1177     7.6317     2.6504     0.0749   -99999.0 
   2142.0000   -99999.0   -99999.0    24.5940     4.4412     4.4547    17.8000     7.3066     2.6515     0.0591   -99999.0 
   2142.2000   -99999.0   -99999.0    24.0181     4.6011     4.5268    17.7552     7.4922     2.6348     0.0224   -99999.0 
   2142.4000   -99999.0   -99999.0    23.6016     4.7769     4.5819    17.4720     7.5138     2.6214    -0.0004   -99999.0 
   2142.6000   -99999.0   -99999.0    22.9869     4.9312     4.6498    17.2639     7.4224     2.6231     0.0004   -99999.0 
   2142.8000   -99999.0   -99999.0    19.7903     5.1618     4.7223    16.7616     7.6371     2.6231     0.0069   -99999.0 
   2143.0000   -99999.0   -99999.0   -99999.0     5.5281     4.7961    16.4909     7.5170     2.6137     0.0149   -99999.0 
   2143.2000   -99999.0   -99999.0   -99999.0     5.9314     4.9216    15.9972     7.8664     2.6009     0.0281   -99999.0 
   2143.4000   -99999.0   -99999.0   -99999.0     6.2028     5.0654    15.4749     7.6442     2.5865     0.0360   -99999.0 
   2143.6000   -99999.0   -99999.0   -99999.0     6.2898     5.1200    14.8098     7.4185     2.5688     0.0303   -99999.0 
   2143.8000   -99999.0   -99999.0   -99999.0     6.2541     5.1735    14.5108     7.3233     2.5602     0.0204   -99999.0 
   2144.0000   -99999.0   -99999.0   -99999.0     6.1333     5.1938    14.2966     7.4734     2.5741     0.0312   -99999.0 
   2144.2000   -99999.0   -99999.0   -99999.0     5.9455     5.1625    13.7716     7.2912     2.5934     0.0568   -99999.0 
   2144.4000   -99999.0   -99999.0   -99999.0     5.6987     5.1314    13.6883     7.2602     2.6105     0.0721   -99999.0 
   2144.6000   -99999.0   -99999.0   -99999.0     5.4113     5.0819    14.3955     7.3803     2.6307     0.0690   -99999.0 
   2144.8000   -99999.0   -99999.0   -99999.0     5.2356     5.0116    15.8602     7.4243     2.6440     0.0645   -99999.0 
   2145.0000   -99999.0   -99999.0   -99999.0     5.2793     4.9513    17.7303     7.4321     2.6403     0.0673   -99999.0 
   2145.2000   -99999.0   -99999.0   -99999.0     5.5827     4.9720    19.1193     7.3788     2.6307     0.0733   -99999.0 
   2145.4000   -99999.0   -99999.0   -99999.0     5.8997     5.0377    20.2559     7.5129     2.6317     0.0741   -99999.0 
   2145.6000   -99999.0   -99999.0   -99999.0     6.0294     5.1144    21.0786     7.3194     2.6380     0.0669   -99999.0 
   2145.8000   -99999.0   -99999.0   -99999.0     6.0405     5.1692    21.9626     7.1838     2.6357     0.0500   -99999.0 
   2146.0000   -99999.0   -99999.0   -99999.0   -99999.0   -99999.0    23.2201     7.4034     2.6328     0.0339   -99999.0 
   2146.2000   -99999.0   -99999.0   -99999.0   -99999.0   -99999.0    24.5248     7.5583     2.6389     0.0297   -99999.0 
   2146.4000   -99999.0   -99999.0   -99999.0   -99999.0   -99999.0    25.9085     7.3540     2.6440     0.0320   -99999.0 
   2146.6000   -99999.0   -99999.0   -99999.0   -99999.0   -99999.0    27.5508     7.4423     2.6443     0.0317   -99999.0 
   2146.8000   -99999.0   -99999.0   -99999.0   -99999.0   -99999.0   -99999.0     7.6020     2.6456     0.0291   -99999.0 
   2147.0000   -99999.0   -99999.0   -99999.0   -99999.0   -99999.0   -99999.0   -99999.0   -99999.0   -99999.0   -99999.0 
