~VERSION INFORMATION                                                           
 VERS.           2.0: CWLS Log ASCII Standard - Version 2.0                    
 WRAP.            NO: One Line per Depth Step                                  
~WELL INFORMATION                                                              
#MNEM.UNIT              DATA            DESCRIPTION OF MNEMONIC                
#-----------            ----            -----------------------                
 STRT.MORRA           900.0000              :Start Depth                           
 STOP.M          2147.0000              :Stop  Depth                           
 STEP.M             0.2000              :Step                                  
 NULL.              -99999.0            :Null Value                            
 COMP.     PETROLEO BRASILEIRO S/A      :Company                               
 ORIG.     SIGEO EXPORTACAO PERFIL      :Origem dos dados                      
 WELL.     7FU  0128  AL                :Well                                  
 FLD.                                   :Field                                 
 LOC.                                   :Location                              
 STAT.                                  :State                                 
 SRVC.                                  :Service Company                       
 DATE.                                  :Log Date                              
 API.      081150370200                 :API Code                              
 X.              815480.800000          :Surface X                             
 Y.              8917272.700000         :Surface Y                             
 HZCS.           UTM                    :Horizontal Coordinate System          
 MC.               39 W                 :Meridiano Central
 LATI.             -9.782647            :Latitude                              
 LONG.            -36.124445            :Longitude                             
 GDAT.           SIRGAS2000             :Geodetic Datum                        
 EKB.M            27.0000               :Elevation Kelly Bushing               
 EGL.M            22.0000               :GROUND ELEVATION                      
~CURVE INFORMATION                                                             
 DEPT.M		                            :Measured Depth                        
 DT.us/ft                               :DELTA-T (ALSO CALLED SLOWNESS OR INTERVAL TRANSIT TIME) 
 GR.gAPI                                :GAMMA RAY 
 NPHI.%                                 :THERMAL NEUTRON POROSITY (ORIGINAL RATIO METHOD) IN SELECTED LITHOLOGY 
 ILD.ohm.m                              :INDUCTION DEEP RESISTIVITY 
 SN.ohm.m                               :SHORT NORMAL RESISTIVITY 
 SP.mV                                  :SPONTANEOUS POTENTIAL 
 CALI.in                                :CALIPER 
 RHOB.g/cm3                             :BULK DENSITY 
 DRHO.g/cm3                             :BULK DENSITIY CORRECTION 
 MSFL.ohm.m                             :MICRO-SPHERICALLY-FOCUSED RESISTIVITY 
~ASCII LOG DATA                                                                
# ...
   2057.0000    74.2354   119.0701    22.0329     4.4544     4.8262   -13.2215     8.3739     2.6272     0.0143   -99999.0 
   2057.2000    75.0228   121.4445    22.8487     4.2035     4.7961   -13.0295     8.3870     2.6288     0.0451   -99999.0 
   2057.4000    75.6051   124.7186    24.8385     3.9051     4.7308   -12.8966     8.3097     2.6371     0.0831   -99999.0 
   2057.6000    76.0318   125.8508    26.9807     3.6657     4.6740   -12.7000     8.3164     2.6387     0.0794   -99999.0 
   2057.8000    77.4551   125.8967    27.3005     3.5073     4.5907   -12.7000     8.3700     2.6341     0.0383   -99999.0 
   2058.0000    80.4852   124.9122    24.7443     3.4374     4.5007   -12.7954     8.3700     2.6387     0.0050   -99999.0 
   2058.2000    81.2467   124.0710    21.8355     3.3896     4.3894   -12.6000     8.3593     2.6521     0.0043   -99999.0 
   2058.4000    80.5791   124.0241    21.0858     3.3055     4.3509   -12.4264     8.3300     2.6568     0.0126   -99999.0 
   2058.6000    78.1505   120.7040    21.5892     3.2070     4.3373   -12.0327     8.3656     2.6489     0.0294   -99999.0 
   2058.8000    76.2593   118.7883    22.3524     3.1844     4.2874   -12.4000     8.4200     2.6438     0.0597   -99999.0 
   2059.0000    76.8736   117.4803    22.1512     3.2601     4.2763   -12.3484     8.4200     2.6511     0.0852   -99999.0 
   2059.2000    79.5046   116.5570    21.1430     3.3868     4.3036   -12.4656     8.4200     2.6575     0.0953   -99999.0 
   2059.4000    79.5753   109.5366    20.3818     3.4810     4.3208   -12.5860     8.4130     2.6581     0.1003   -99999.0 
   2059.6000    77.5209   101.7562    20.5608     3.5119     4.3825   -12.5453     8.3700     2.6585     0.1152   -99999.0 
   2059.8000    75.3993    98.8554    19.5625     3.4890     4.4157   -12.6000     8.4083     2.6496     0.1378   -99999.0 
   2060.0000    73.5845    99.7776    19.6688     3.4933     4.3946   -12.6000     8.3923     2.6280     0.1548   -99999.0 
   2060.2000    73.6728   103.2066    21.2041     3.5188     4.3972   -12.6000     8.4083     2.6148     0.1702   -99999.0 
   2060.4000    74.7319   107.2592    23.8861     3.5067     4.4086   -12.6000     8.4743     2.6081     0.1912   -99999.0 
   2060.6000    77.9505   110.9818    25.5826     3.4423     4.3544   -12.4015     9.0560     2.5804     0.2019   -99999.0 
   2060.8000    81.9228   111.8667    26.7275     3.3226     4.2892   -12.5327     8.7800     2.5306     0.1871   -99999.0 
   2061.0000    83.0639   110.8963    27.8632     3.2083     4.2497   -12.7278     8.8056     2.4961     0.1706   -99999.0 
   2061.2000    82.9097   109.4855    29.9777     3.1633     4.2184   -12.9903     8.8676     2.4910     0.1632   -99999.0 
   2061.4000    84.1858   108.6011    31.3842     3.2013     4.1607   -13.2528     9.1426     2.5117     0.1696   -99999.0 
   2061.6000    88.2316   109.1733    32.4939     3.2414     4.1444   -13.5152     9.1442     2.5296     0.1805   -99999.0 
   2061.8000    91.7546   111.3838    33.0810     3.2575     4.2376   -13.7777     8.7224     2.5277     0.1723   -99999.0 
   2062.0000    91.7992   111.9881    33.6325     3.3225     4.3076   -13.8000     8.5320     2.5220     0.1294   -99999.0 
   2062.2000    90.5382   111.1904    32.1034     3.5491     4.4801   -13.8513     8.5800     2.5357     0.0760   -99999.0 
   2062.4000    89.7698   110.0592    24.2879     3.9562     4.6837   -14.0651     8.5800     2.5698     0.0382   -99999.0 
   2062.6000    89.3106   108.9147    16.3491     4.5492     4.8508   -14.3413     8.5456     2.6079     0.0275   -99999.0 
   2062.8000    85.0243   102.2291    12.4193     5.2118     5.0455   -14.7801     8.3210     2.6101     0.0501   -99999.0 
   2063.0000    78.0352    96.5032    11.9965     5.7788     5.2197   -15.3050     8.3252     2.5576     0.0973   -99999.0 
   2063.2000    74.4177    95.3154    14.0789     6.3734     5.4247   -15.5626     8.3293     2.4781     0.1435   -99999.0 
   2063.4000    73.0903    95.3289    17.1743     7.3685     5.7287   -14.4419     8.3239     2.4242     0.1426   -99999.0 
   2063.6000    73.5093    94.0944    22.0278     8.9713     6.0587   -13.5399     8.3650     2.4479     0.1282   -99999.0 
   2063.8000    76.1083    97.4775    26.0002    11.2419     6.4898   -14.0024     8.3898     2.5569     0.1707   -99999.0 
   2064.0000    76.6055   104.0232    25.5305    13.4065     6.8173   -14.1676     8.3862     2.6316     0.2404   -99999.0 
   2064.2000    75.5635   107.8495    23.6635    13.9613     6.9329   -14.1637     8.4200     2.6000     0.2466   -99999.0 
   2064.4000    74.4409   106.6171    24.5653    12.6822     7.1350   -14.5795     8.3915     2.5098     0.2067   -99999.0 
   2064.6000    74.0478   104.3836    27.8256    11.1457     7.0782   -14.7522     8.3757     2.4315     0.2022   -99999.0 
   2064.8000    75.3911   101.9990    32.2774    10.5855     6.9183   -15.0721     8.4601     2.3801     0.2262   -99999.0 
   2065.0000    84.2953   103.0112    34.7790    10.5224     6.8288   -15.5543     8.6317     2.3474     0.2206   -99999.0 
   2065.2000    95.8512   104.8670    32.7132    10.0126     6.8015   -15.7000     8.7458     2.3539     0.1735   -99999.0 
   2065.4000   100.0063   103.4384    31.3917     8.7264     6.7368   -15.6489     8.9776     2.4228     0.1566   -99999.0 
   2065.6000    97.9961   100.8818    32.3257     7.2854     6.5486   -15.9291     8.8861     2.5107     0.1850   -99999.0 
   2065.8000    93.5648    97.7369    32.2691     6.1953     6.1957   -15.8541     8.6738     2.5424     0.1952   -99999.0 
   2066.0000    91.9840    96.4226    29.3917     5.4058     5.7751   -16.2448     8.3261     2.5230     0.1595   -99999.0 
   2066.2000    88.9724    96.8605    26.6234     4.7394     5.3566   -16.8319     8.2908     2.5021     0.1053   -99999.0 
   2066.4000    87.5845   103.6082    26.1223     4.1716     4.9049   -17.8650     8.2471     2.4878     0.0517   -99999.0 
   2066.6000    85.6770   111.5151    25.7570     3.7104     4.4623   -19.0845     8.2100     2.4616     0.0162   -99999.0 
   2066.8000    85.9756   112.8166    22.2720     3.2720     4.1440   -20.6059     8.2100     2.4234     0.0056   -99999.0 
   2067.0000    84.7596    88.4054    17.1693     2.8152     3.9251   -22.8193     8.2493     2.3900     0.0081   -99999.0 
   2067.2000    79.1139    66.0337    14.4770     2.3827     3.7404   -25.7681     8.1443     2.3931     0.0169   -99999.0 
   2067.4000    74.2449    57.1408    13.3859     2.0323     3.5537   -28.8677     8.0900     2.4206     0.0287   -99999.0 
   2067.6000    72.3377    54.4024    13.3295     1.7528     3.3650   -31.1139     8.0711     2.4328     0.0329   -99999.0 
   2067.8000    73.9327    53.4933    13.3620     1.5260     3.2372   -32.3293     8.0848     2.4068     0.0277   -99999.0 
   2068.0000    74.5429    55.6840    14.0937     1.3334     3.1059   -32.8142     8.0814     2.3833     0.0217   -99999.0 
   2068.2000    74.3234    58.3349    15.7288     1.1915     2.9952   -32.8117     8.1077     2.3878     0.0103   -99999.0 
   2068.4000    74.2760    60.0400    17.5674     1.1288     2.8949   -32.5804     8.1144     2.4304    -0.0048   -99999.0 
   2068.6000    76.2697    66.4468    19.0547     1.1420     2.8476   -32.3984     8.0144     2.4767    -0.0050   -99999.0 
   2068.8000    79.1404    77.7820    20.7525     1.2105     2.8272   -31.8079     8.0702     2.4724     0.0037   -99999.0 
   2069.0000    79.0144    99.4075    22.7541     1.3250     2.8467   -30.4409     8.0953     2.4181     0.0053   -99999.0 
   2069.2000    77.1772   109.3274    22.6582     1.5015     2.9587   -29.2220     8.1256     2.3824    -0.0008   -99999.0 
   2069.4000    75.9457    99.0761    19.9375     1.7518     3.1571   -29.7572     8.1276     2.3825    -0.0038   -99999.0 
   2069.6000    75.6930    88.5501    17.8057     2.0500     3.4175   -31.0626     8.0230     2.3832     0.0004   -99999.0 
   2069.8000    75.4090    88.6236    16.6943     2.2431     3.6556   -32.2437     7.9300     2.3677     0.0079   -99999.0 
