~VERSION INFORMATION                                                           
 VERS.           2.0: CWLS Log ASCII Standard - Version 2.0                    
 WRAP.            NO: One Line per Depth Step                                  
~WELL INFORMATION                                                              
#MNEM.UNIT              DATA            DESCRIPTION OF MNEMONIC                
#-----------            ----            -----------------------                
 STRT.MORRA           900.0000              :Start Depth                           
 STOP.M          2147.0000              :Stop  Depth                           
 STEP.M             0.2000              :Step                                  
 NULL.              -99999.0            :Null Value                            
 COMP.     PETROLEO BRASILEIRO S/A      :Company                               
 ORIG.     SIGEO EXPORTACAO PERFIL      :Origem dos dados                      
 WELL.     7FU  0128  AL                :Well                                  
 FLD.                                   :Field                                 
 LOC.                                   :Location                              
 STAT.                                  :State                                 
 SRVC.                                  :Service Company                       
 DATE.                                  :Log Date                              
 API.      081150370200                 :API Code                              
 X.              815480.800000          :Surface X                             
 Y.              8917272.700000         :Surface Y                             
 HZCS.           UTM                    :Horizontal Coordinate System          
 MC.               39 W                 :Meridiano Central
 LATI.             -9.782647            :Latitude                              
 LONG.            -36.124445            :Longitude                             
 GDAT.           SIRGAS2000             :Geodetic Datum                        
 EKB.M            27.0000               :Elevation Kelly Bushing               
 EGL.M            22.0000               :GROUND ELEVATION                      
~CURVE INFORMATION                                                             
 DEPT.M		                            :Measured Depth                        
 DT.us/ft                               :DELTA-T (ALSO CALLED SLOWNESS OR INTERVAL TRANSIT TIME) 
 GR.gAPI                                :GAMMA RAY 
 NPHI.%                                 :THERMAL NEUTRON POROSITY (ORIGINAL RATIO METHOD) IN SELECTED LITHOLOGY 
 ILD.ohm.m                              :INDUCTION DEEP RESISTIVITY 
 SN.ohm.m                               :SHORT NORMAL RESISTIVITY 
 SP.mV                                  :SPONTANEOUS POTENTIAL 
 CALI.in                                :CALIPER 
 RHOB.g/cm3                             :BULK DENSITY 
 DRHO.g/cm3                             :BULK DENSITIY CORRECTION 
 MSFL.ohm.m                             :MICRO-SPHERICALLY-FOCUSED RESISTIVITY 
~ASCII LOG DATA                                                                
    900.0000    69.0472    85.7213   -99999.0     7.2210     4.6678     3.2529    12.3795     2.5464     0.0320     6.5673 
    900.2000    77.0163   104.4205   -99999.0     7.3194     4.7098     3.2694    12.3435     2.5080     0.0324     7.1898 
    900.4000    85.1276   118.9554   -99999.0     7.1777     4.7375     3.2797    12.3614     2.4690     0.0266     8.8439 
    900.6000    86.7063   125.5386   -99999.0     6.8601     4.7901     3.1577    12.3655     2.4789     0.0244     8.8034 
    900.8000    84.8821   124.9060   -99999.0     6.6828     4.8338     3.1220    12.3600     2.5001     0.0250     7.6337 
    901.0000    84.1882   123.9690   -99999.0     6.8289     4.8994     3.4354    12.3400     2.4893     0.0229     7.3770 
    901.2000    85.9173   127.7205   -99999.0     7.2248     4.9424     3.8331    12.3284     2.4653     0.0243     8.7145 
    901.4000    87.2491   133.0228   -99999.0     7.6125     5.0095     3.9286    12.1843     2.4722     0.0336    10.0037 
    901.6000    86.8937   138.5399   -99999.0     7.8174     5.0823     3.9969    12.1199     2.5012     0.0379     9.9960 
    901.8000    86.2031   142.2031   -99999.0     7.9666     5.1638     3.9477    12.1100     2.5173     0.0264     9.4764 
    902.0000    86.0000   138.8241   -99999.0     8.1729     5.2262     3.9586    12.1100     2.5181     0.0171     8.7441 
    902.2000    86.7580   133.0205   -99999.0     8.4602     5.2825     3.8648    12.0911     2.5094     0.0245     7.2626 
    902.4000    89.1937   135.5095   -99999.0     8.7422     5.3403     3.6997    12.0874     2.4852     0.0512     6.2721 
    902.6000    91.2294   137.7567   -99999.0     8.9985     5.3951     3.6797    12.0571     2.4477     0.0804     7.2882 
    902.8000    92.0538   134.0504   -99999.0     9.2087     5.3951     3.7143    12.0400     2.4092     0.0943    10.1368 
    903.0000    91.2244   132.7709   -99999.0     9.3970     5.4274     3.8273    12.0900     2.3880     0.0832    12.1736 
    903.2000    89.3362   136.9840   -99999.0     9.4731     5.4576     3.7397    12.0849     2.3931     0.0689    13.0119 
    903.4000    88.0249   140.1966   -99999.0     9.2854     5.4576     3.9663    12.1046     2.4038     0.0619    13.3352 
    903.6000    87.1661   139.0984   -99999.0     8.7570     5.4525     4.2967    12.1073     2.4030     0.0523    11.1227 
    903.8000    85.9430   134.2244   -99999.0     8.0249     5.3923     4.4009    12.0989     2.4048     0.0484     7.4248 
    904.0000    84.6656   125.3317   -99999.0     7.3566     5.2930     4.3071    12.1100     2.4085     0.0536     4.9633 
    904.2000    83.2291   112.7464   -99999.0     6.8836     5.1407     4.5751    12.1050     2.3940     0.0565     4.6959 
    904.4000    82.0318   107.9879   -99999.0     6.5398     4.9583     4.8571    12.0477     2.3592     0.0450     6.5609 
    904.6000    82.0173   116.5772   -99999.0     6.1828     4.8778     4.7662    12.0948     2.3492     0.0293     7.8163 
    904.8000    84.0094   124.5362   -99999.0     5.8193     4.7531     4.7143    12.0899     2.3852     0.0291     5.3702 
    905.0000    85.1360   111.3126   -99999.0     5.5288     4.6999     4.8228    12.0736     2.4147     0.0452     3.6005 
    905.2000    83.7349    92.2034   -99999.0     5.2520     4.6088     5.0920    12.0473     2.3969     0.0430     3.1915 
    905.4000    79.3149    84.6653   -99999.0     4.9992     4.5417     5.2143    12.0117     2.3634     0.0229     3.4749 
    905.6000    75.3656    91.0520   -99999.0     4.8443     4.4901     5.1429    12.0400     2.3598     0.0153     3.7924 
    905.8000    75.3113   101.1842   -99999.0     4.8577     4.4978     5.1066    12.0400     2.3743     0.0264     4.4562 
    906.0000    79.5276   113.6189   -99999.0     4.9971     4.5161     4.9542    12.0576     2.3869     0.0443     6.7825 
    906.2000    83.8136   124.8294   -99999.0     5.1970     4.5874     4.7143    12.1597     2.3942     0.0489    12.5302 
    906.4000    83.9908   130.8223   -99999.0     5.4607     4.7108     4.6509    12.2101     2.4051     0.0309    12.6182 
    906.6000    82.9724   136.4307   -99999.0     5.8893     4.8095     4.6795    12.2364     2.4282     0.0187     9.4008 
    906.8000    86.0281   142.1869   -99999.0     6.4323     4.9008     4.5714    12.2108     2.4577     0.0376    10.8794 
    907.0000    88.2887   139.7491   -99999.0     6.8805     4.9406     4.5986    12.1810     2.4712     0.0563    13.4221 
    907.2000    87.5685   131.7354   -99999.0     7.0923     4.9401     4.6923    12.2200     2.4816     0.0512     8.9978 
    907.4000    85.0249   120.7378   -99999.0     6.9951     4.8558     5.0000    12.1986     2.4925     0.0441     5.1284 
    907.6000    84.0761   100.6354   -99999.0     6.5699     4.7013     5.0000    12.1572     2.4734     0.0452     4.2594 
    907.8000    83.0913    79.1142   -99999.0     5.9804     4.5542     5.1346    12.1408     2.4239     0.0350     4.2224 
    908.0000    79.1858    69.0000   -99999.0     5.3809     4.4051     5.2143    12.0396     2.3810     0.0190     4.1393 
    908.2000    76.1824    69.0635   -99999.0     4.9456     4.2939     5.5542    11.9605     2.3775     0.0248     4.0323 
    908.4000    75.6890    68.8850   -99999.0     4.6055     4.1781     5.7143    11.9400     2.3880     0.0482     4.1190 
    908.6000    76.5538    69.0769   -99999.0     4.3457     4.1137     5.7143    11.9494     2.3910     0.0711     3.8964 
    908.8000    77.5782    71.4855   -99999.0     4.1280     4.0737     5.7587    11.9700     2.3706     0.0735     3.5459 
    909.0000    78.2134    74.6740   -99999.0     3.9366     4.0300     5.7500    11.9700     2.3390     0.0575     3.5132 
    909.2000    78.5638    77.7344   -99999.0     3.8192     4.0017     5.6250    11.9700     2.3193     0.0396     3.6652 
    909.4000    79.0383    79.3233   -99999.0     3.8208     3.9537     5.4643    11.9700     2.3267     0.0336     3.6795 
    909.6000    79.3008    77.4378   -99999.0     3.9136     3.9491     5.2143    11.9700     2.3435     0.0385     3.4485 
    909.8000    79.4816    71.9819   -99999.0     4.0305     3.9372     5.3746    11.9700     2.3498     0.0443     3.2846 
    910.0000    79.4614    66.1528   -99999.0     4.1069     3.9073     5.7186    11.9613     2.3465     0.0532     3.4843 
    910.2000    78.9795    63.4913   -99999.0     4.1484     3.8876     5.7857    11.9744     2.3399     0.0606     3.7721 
    910.4000    78.3233    63.1000   -99999.0     4.1736     3.8659     5.7368    11.9800     2.3292     0.0495     3.8084 
    910.6000    78.2197    62.9000   -99999.0     4.2208     3.8625     5.9991    11.9900     2.3231     0.0306     3.6736 
    910.8000    78.7268    63.0134   -99999.0     4.3095     3.8526     6.2143    11.9900     2.3248     0.0258     3.5188 
    911.0000    79.5142    63.0619   -99999.0     4.4212     3.8760     6.1700    11.9900     2.3260     0.0256     3.4655 
    911.2000    79.8987    61.2947   -99999.0     4.5187     3.8726     6.4093    11.9900     2.3250     0.0170     3.7682 
    911.4000    78.9276    59.5205   -99999.0     4.5842     3.8778     6.3396    11.9894     2.3331     0.0165     4.3285 
    911.6000    77.0218    62.2583   -99999.0     4.6467     3.9197     6.2459    12.0100     2.3495     0.0302     4.5896 
    911.8000    75.9362    66.9827   -99999.0     4.7584     3.9606     6.2763    12.0100     2.3587     0.0416     4.6533 
    912.0000    75.5748    67.0709   -99999.0     4.9382     3.9950     6.2143    12.0100     2.3550     0.0330     4.9669 
    912.2000    75.5000    65.1614   -99999.0     5.1382     4.0628     6.2143    12.0156     2.3537     0.0189     5.6047 
    912.4000    75.1493    66.4780   -99999.0     5.2954     4.1080     6.0994    12.0112     2.3638     0.0132     6.2036 
    912.6000    74.3055    67.8488   -99999.0     5.3968     4.1953     6.2857    12.0238     2.3842     0.0171     6.0348 
    912.8000    73.6493    66.5483   -99999.0     5.5020     4.2611     6.2551    12.0250     2.4020     0.0250     5.5922 
