~VERSION INFORMATION                                                           
 VERS.           2.0: CWLS Log ASCII Standard - Version 2.0                    
 WRAP.            NO: One Line per Depth Step                                  
~WELL INFORMATION                                                              
#MNEM.UNIT              DATA            DESCRIPTION OF MNEMONIC                
#-----------            ----            -----------------------                
 STRT.MORRA           900.0000              :Start Depth                           
 STOP.M          2147.0000              :Stop  Depth                           
 STEP.M             0.2000              :Step                                  
 NULL.              -99999.0            :Null Value                            
 COMP.     PETROLEO BRASILEIRO S/A      :Company                               
 ORIG.     SIGEO EXPORTACAO PERFIL      :Origem dos dados                      
 WELL.     7FU  0128  AL                :Well                                  
 FLD.                                   :Field                                 
 LOC.                                   :Location                              
 STAT.                                  :State                                 
 SRVC.                                  :Service Company                       
 DATE.                                  :Log Date                              
 API.      081150370200                 :API Code                              
 X.              815480.800000          :Surface X                             
 Y.              8917272.700000         :Surface Y                             
 HZCS.           UTM                    :Horizontal Coordinate System          
 MC.               39 W                 :Meridiano Central
 LATI.             -9.782647            :Latitude                              
 LONG.            -36.124445            :Longitude                             
 GDAT.           SIRGAS2000             :Geodetic Datum                        
 EKB.M            27.0000               :Elevation Kelly Bushing               
 EGL.M            22.0000               :GROUND ELEVATION                      
~CURVE INFORMATION                                                             
 DEPT.M		                            :Measured Depth                        
 DT.us/ft                               :DELTA-T (ALSO CALLED SLOWNESS OR INTERVAL TRANSIT TIME) 
 GR.gAPI                                :GAMMA RAY 
 NPHI.%                                 :THERMAL NEUTRON POROSITY (ORIGINAL RATIO METHOD) IN SELECTED LITHOLOGY 
 ILD.ohm.m                              :INDUCTION DEEP RESISTIVITY 
 SN.ohm.m                               :SHORT NORMAL RESISTIVITY 
 SP.mV                                  :SPONTANEOUS POTENTIAL 
 CALI.in                                :CALIPER 
 RHOB.g/cm3                             :BULK DENSITY 
 DRHO.g/cm3                             :BULK DENSITIY CORRECTION 
 MSFL.ohm.m                             :MICRO-SPHERICALLY-FOCUSED RESISTIVITY 
~ASCII LOG DATA                                                                
# ...
    978.0000    89.3260    99.1362   -99999.0     3.3657     3.5026     9.3779    12.1932     2.2926     0.0207     3.2229 
    978.2000    90.5622   102.6879   -99999.0     3.3100     3.4401     9.5326    12.1873     2.3011     0.0238     3.2782 
    978.4000    92.7055   106.6320   -99999.0     3.2110     3.3680     9.4615    12.2179     2.3135     0.0345     3.0936 
    978.6000    96.0315   110.0079   -99999.0     3.0577     3.3110     9.5058    12.3030     2.3160     0.0430     2.6925 
    978.8000   100.2882   109.1123   -99999.0     2.9110     3.2799     9.7120    12.3400     2.3107     0.0500     2.5730 
    979.0000   102.1423   103.0467   -99999.0     2.8244     3.2667    10.1300    12.2692     2.3125     0.0610     2.6961 
    979.2000    97.5795    92.5071   -99999.0     2.7900     3.2345    10.1466    12.2109     2.3234     0.0662     2.6562 
    979.4000    89.2394    82.0866   -99999.0     2.7667     3.2209    10.4278    11.9445     2.3305     0.0584     2.4742 
    979.6000    82.4675    74.0173   -99999.0     2.7387     3.1895    10.7088    11.9118     2.3345     0.0466     2.5034 
    979.8000    79.1189    67.1984   -99999.0     2.7467     3.1540    10.9900    11.8880     2.3469     0.0399     2.7227 
    980.0000    76.4968    64.9123   -99999.0     2.7999     3.1510    11.0904    11.9400     2.3630     0.0390     3.0599 
    980.2000    74.5139    66.2861   -99999.0     2.8397     3.1550    11.1016    11.9703     2.3695     0.0398     3.3557 
    980.4000    73.5071    66.2646   -99999.0     2.8296     3.1545    11.2620    11.9700     2.3690     0.0434     3.0695 
    980.6000    73.9066    66.2215   -99999.0     2.7956     3.1367    11.5144    11.9700     2.3682     0.0495     2.6193 
    980.8000    75.1651    68.0824   -99999.0     2.7664     3.1189    11.4981    11.9561     2.3642     0.0555     2.4634 
    981.0000    76.5031    69.5079   -99999.0     2.7476     3.0759    11.3696    11.9103     2.3539     0.0590     2.6023 
    981.2000    76.6758    71.0123   -99999.0     2.6966     3.0323    11.2340    11.9564     2.3440     0.0557     2.9320 
    981.4000    75.6940    72.6693   -99999.0     2.6013     2.9861    11.3250    11.9573     2.3445     0.0505     2.9536 
    981.6000    75.2110    71.9606   -99999.0     2.4879     2.9463    11.2313    11.9689     2.3545     0.0471     2.5547 
    981.8000    75.9829    69.2142   -99999.0     2.4027     2.9123    11.0714    11.9423     2.3572     0.0462     2.1865 
    982.0000    77.5404    67.7583   -99999.0     2.3444     2.8635    11.0163    11.9371     2.3429     0.0400     2.0466 
    982.2000    78.8055    67.5882   -99999.0     2.3093     2.8093    10.8788    11.9235     2.3201     0.0299     2.1125 
    982.4000    78.8223    68.4583   -99999.0     2.2972     2.7608    10.5721    11.9239     2.3086     0.0224     2.3464 
    982.6000    78.1454    68.0921   -99999.0     2.3177     2.7257    10.6429    11.9603     2.3186     0.0215     2.5332 
    982.8000    77.0630    67.5819   -99999.0     2.3961     2.7164    10.5071    11.9554     2.3407     0.0263     2.6304 
    983.0000    76.5575    76.9735   -99999.0     2.5498     2.7231    10.4286    11.9439     2.3520     0.0299     2.9053 
    983.2000    79.0194    97.8858   -99999.0     2.7588     2.7840    10.2304    11.9700     2.3524     0.0299     3.3734 
    983.4000    83.2189   110.6795   -99999.0     2.9735     2.8300    10.0307    11.9700     2.3598     0.0393     3.6850 
    983.6000    84.8908   103.0128   -99999.0     3.1704     2.9244    10.0629    11.9700     2.3725     0.0575     3.8159 
    983.8000    82.0299    87.5128   -99999.0     3.3100     3.0440    10.1151    11.9738     2.3808     0.0625     3.6994 
    984.0000    77.1669    80.4756   -99999.0     3.3897     3.1079     9.9639    11.9731     2.3806     0.0503     3.6065 
    984.2000    74.1031    82.9383   -99999.0     3.4277     3.1261    10.1037    11.9699     2.3740     0.0310     3.9007 
    984.4000    75.4940    92.1690   -99999.0     3.4356     3.1310     9.9907    11.9564     2.3804     0.0246     4.0873 
    984.6000    78.3338    95.8331   -99999.0     3.4256     3.1306     9.7706    11.9700     2.4096     0.0368     3.7398 
    984.8000    78.5289    88.2446   -99999.0     3.3976     3.1538     9.7329    11.9512     2.4294     0.0486     3.5213 
    985.0000    76.3399    79.7417   -99999.0     3.3476     3.1279     9.7237    11.9551     2.4021     0.0357     3.6429 
    985.2000    73.9630    79.5338   -99999.0     3.3060     3.1415     9.8301    11.9643     2.3688     0.0237     3.8205 
    985.4000    73.0483    81.2793   -99999.0     3.3028     3.1350     9.8350    11.9424     2.3592     0.0246     3.7776 
    985.6000    72.3084    80.8724   -99999.0     3.3724     3.1316     9.7857    11.9400     2.3651     0.0282     3.6503 
    985.8000    71.2984    85.4803   -99999.0     3.4718     3.1513     9.8081    11.9400     2.3730     0.0295     4.0717 
    986.0000    72.2428   100.6462   -99999.0     3.5407     3.1537     9.9018    11.9400     2.3850     0.0308     5.1830 
    986.2000    75.1829   113.5971   -99999.0     3.5460     3.1550     9.7277    11.9526     2.4101     0.0368     5.2434 
    986.4000    77.6291   108.0055   -99999.0     3.5140     3.1550     9.6607    11.9568     2.4350     0.0446     4.1891 
    986.6000    77.8480    91.1034   -99999.0     3.4494     3.1550     9.3795    11.9249     2.4279     0.0480     3.7197 
    986.8000    75.5753    77.0310   -99999.0     3.3693     3.1300     9.2857    11.9680     2.3944     0.0448     3.6886 
    987.0000    73.4598    73.7669   -99999.0     3.2989     3.0725     9.1827    11.9324     2.3661     0.0420     3.9424 
    987.2000    72.6239    76.5638   -99999.0     3.2196     3.0356     9.3215    11.9338     2.3539     0.0413     4.5407 
    987.4000    71.7984    77.6984   -99999.0     3.1259     3.0268     9.1701    11.9401     2.3520     0.0400     4.7625 
    987.6000    71.1055    76.9110   -99999.0     3.0260     2.9832     9.0975    11.9637     2.3598     0.0426     3.8385 
    987.8000    71.2136    75.8100   -99999.0     2.9486     2.9657     9.3788    11.9437     2.3679     0.0460     3.1212 
    988.0000    72.4336    73.4268   -99999.0     2.8994     2.9262     9.5000    11.9212     2.3690     0.0441     3.0318 
    988.2000    73.2748    71.3756   -99999.0     2.8347     2.8840     9.3571    11.9326     2.3760     0.0475     3.2455 
    988.4000    73.0307    72.1079   -99999.0     2.7398     2.8297     9.4100    11.9587     2.3837     0.0548     3.2247 
    988.6000    72.5493    72.3247   -99999.0     2.6394     2.8014     9.5488    11.9675     2.3789     0.0579     3.0506 
    988.8000    72.8890    71.7756   -99999.0     2.5615     2.7645     9.4295    11.9500     2.3615     0.0541     2.9644 
    989.0000    73.9507    72.1501   -99999.0     2.5004     2.7290     9.5277    11.9500     2.3470     0.0485     2.7913 
    989.2000    74.3627    70.2472   -99999.0     2.4315     2.6838     9.3844    11.9500     2.3414     0.0462     2.4601 
    989.4000    74.9630    66.7866   -99999.0     2.3530     2.6417     9.4899    11.9362     2.3390     0.0464     2.2693 
    989.6000    75.6192    66.1315   -99999.0     2.2762     2.5786     9.4804    11.9231     2.3250     0.0363     2.3321 
    989.8000    76.0501    66.3000   -99999.0     2.2169     2.5366     9.6032    11.9400     2.3062     0.0177     2.3109 
    990.0000    75.9000    66.5882   -99999.0     2.1881     2.5043     9.7569    11.9400     2.3026     0.0084     2.1159 
    990.2000    76.3129    68.9509   -99999.0     2.2023     2.4689     9.5714    11.9325     2.3159     0.0193     2.1810 
    990.4000    77.8252    72.9005   -99999.0     2.2394     2.4547     9.5014    11.9062     2.3316     0.0376     2.7126 
    990.6000    77.9000    75.5000   -99999.0     2.2751     2.4547     9.3712    11.9700     2.3460     0.0530     3.1989 
    990.8000    77.2126    73.9192   -99999.0     2.3201     2.5097     9.5081    11.9762     2.3628     0.0590     2.8662 
