~VERSION INFORMATION                                                           
 VERS.           2.0: CWLS Log ASCII Standard - Version 2.0                    
 WRAP.            NO: One Line per Depth Step                                  
~WELL INFORMATION                                                              
#MNEM.UNIT              DATA            DESCRIPTION OF MNEMONIC                
#-----------            ----            -----------------------                
 STRT.MORRA           900.0000              :Start Depth                           
 STOP.M          2147.0000              :Stop  Depth                           
 STEP.M             0.2000              :Step                                  
 NULL.              -99999.0            :Null Value                            
 COMP.     PETROLEO BRASILEIRO S/A      :Company                               
 ORIG.     SIGEO EXPORTACAO PERFIL      :Origem dos dados                      
 WELL.     7FU  0128  AL                :Well                                  
 FLD.                                   :Field                                 
 LOC.                                   :Location                              
 STAT.                                  :State                                 
 SRVC.                                  :Service Company                       
 DATE.                                  :Log Date                              
 API.      081150370200                 :API Code                              
 X.              815480.800000          :Surface X                             
 Y.              8917272.700000         :Surface Y                             
 HZCS.           UTM                    :Horizontal Coordinate System          
 MC.               39 W                 :Meridiano Central
 LATI.             -9.782647            :Latitude                              
 LONG.            -36.124445            :Longitude                             
 GDAT.           SIRGAS2000             :Geodetic Datum                        
 EKB.M            27.0000               :Elevation Kelly Bushing               
 EGL.M            22.0000               :GROUND ELEVATION                      
~CURVE INFORMATION                                                             
 DEPT.M		                            :Measured Depth                        
 DT.us/ft                               :DELTA-T (ALSO CALLED SLOWNESS OR INTERVAL TRANSIT TIME) 
 GR.gAPI                                :GAMMA RAY 
 NPHI.%                                 :THERMAL NEUTRON POROSITY (ORIGINAL RATIO METHOD) IN SELECTED LITHOLOGY 
 ILD.ohm.m                              :INDUCTION DEEP RESISTIVITY 
 SN.ohm.m                               :SHORT NORMAL RESISTIVITY 
 SP.mV                                  :SPONTANEOUS POTENTIAL 
 CALI.in                                :CALIPER 
 RHOB.g/cm3                             :BULK DENSITY 
 DRHO.g/cm3                             :BULK DENSITIY CORRECTION 
 MSFL.ohm.m                             :MICRO-SPHERICALLY-FOCUSED RESISTIVITY 
~ASCII LOG DATA                                                                
# ...
   1563.0000    74.0316    72.1721    15.6823     2.3384     3.7577   -51.2845     8.0931     2.3837     0.0034   -99999.0 
   1563.2000    71.7476    66.4226    13.8044     2.3627     3.7865   -51.4530     8.0423     2.3889     0.0008   -99999.0 
   1563.4000    70.2169    69.2360    13.3628     2.3969     3.8075   -51.0811     8.0500     2.3983     0.0000   -99999.0 
   1563.6000    69.6421    72.8859    13.2095     2.4091     3.8270   -50.4702     8.0586     2.4113     0.0077   -99999.0 
   1563.8000    68.3593    68.6595    12.4320     2.3758     3.8563   -49.4281     8.0500     2.4508     0.0523   -99999.0 
   1564.0000    66.7642    58.0209    11.4930     2.3287     3.8551   -48.0673     8.0403     2.4541     0.1301   -99999.0 
   1564.2000    65.9814    58.6714    12.2291     2.3036     3.8248   -46.5441     8.0459     2.3470     0.1704   -99999.0 
   1564.4000    66.9070    73.0391    14.8738     2.3062     3.7825   -45.2020     8.0700     2.2343     0.1237   -99999.0 
   1564.6000    69.0634    85.3291    17.8894     2.2970     3.7817   -44.1051     8.1206     2.2812     0.0467   -99999.0 
   1564.8000    69.3332    86.2446    19.6348     2.2831     3.8537   -43.3332     8.3734     2.4278     0.0245   -99999.0 
   1565.0000    68.8276    88.6967    20.1345     2.2926     3.9133   -42.9724     8.3600     2.5055     0.0412   -99999.0 
   1565.2000    69.8657    95.9075    21.5401     2.3534     3.7939   -42.3284     8.3815     2.4871     0.0439   -99999.0 
   1565.4000    72.0412   100.5395    23.0035     2.4785     3.7038   -42.2671     8.3731     2.4616     0.0313   -99999.0 
   1565.6000    74.4693   102.8381    22.5431     2.6643     3.6898   -42.3983     8.3303     2.4531     0.0123   -99999.0 
   1565.8000    75.4409   106.3609    20.8654     2.8769     3.7366   -42.4114     8.3630     2.4742    -0.0025   -99999.0 
   1566.0000    74.5101   106.1638    18.6071     3.0752     3.8204   -42.0177     8.3700     2.4999    -0.0036   -99999.0 
   1566.2000    73.1720   101.7944    16.8793     3.2831     3.9541   -41.5320     8.3608     2.5171     0.0118   -99999.0 
   1566.4000    72.6606    94.6558    16.6018     3.5353     4.0909   -40.9374     8.3577     2.5260     0.0363   -99999.0 
   1566.6000    72.0366    91.7652    16.7836     3.8413     4.2421   -40.0188     8.3554     2.5222     0.0375   -99999.0 
   1566.8000    72.6713    92.6837    18.3968     4.1462     4.3466   -38.9287     8.3600     2.5190     0.0123   -99999.0 
   1567.0000    74.6031   101.3025    20.7571     4.3688     4.4040   -37.8984     8.3517     2.5370    -0.0042   -99999.0 
   1567.2000    75.9853   107.1341    21.3963     4.4410     4.4661   -37.2555     8.3600     2.5563    -0.0031   -99999.0 
   1567.4000    76.3206   109.1924    20.9630     4.4545     4.4793   -36.7030     8.3600     2.5618     0.0030   -99999.0 
   1567.6000    76.1232   111.6470    21.9622     4.4919     4.5033   -36.0256     8.3511     2.5595     0.0091   -99999.0 
   1567.8000    79.0884   119.6881    23.7993     4.5377     4.5587   -35.2744     8.3600     2.5521     0.0087   -99999.0 
   1568.0000    81.5502   126.8894    24.9540     4.5346     4.5863   -34.7345     8.3600     2.5480     0.0033   -99999.0 
   1568.2000    83.3606   126.4625    25.5035     4.4982     4.6030   -33.9913     8.3600     2.5563     0.0021   -99999.0 
   1568.4000    85.1268   123.1716    25.5805     4.5305     4.6284   -33.6577     8.3600     2.5619     0.0040   -99999.0 
   1568.6000    87.0356   122.4545    26.8083     4.6564     4.6919   -33.3332     8.3600     2.5540     0.0040   -99999.0 
   1568.8000    88.9724   123.7911    28.6120     4.8718     4.7740   -33.1039     8.3600     2.5490     0.0050   -99999.0 
   1569.0000    90.5804   128.4338    29.2546     5.1103     4.8781   -32.8122     8.3529     2.5630     0.0024   -99999.0 
   1569.2000    92.7705   131.8427    28.1284     5.3323     5.0288   -32.7210     8.3660     2.5786    -0.0002   -99999.0 
   1569.4000    96.0768   124.6061    26.1408     5.5572     5.1892   -32.8000     8.3700     2.5691    -0.0001   -99999.0 
   1569.6000    92.7139   110.3460    25.2440     5.9204     5.3619   -32.6000     8.3700     2.5457     0.0003   -99999.0 
   1569.8000    88.6710   106.1932    26.1369     6.4744     5.5195   -32.4916     8.3700     2.5429    -0.0053   -99999.0 
   1570.0000    94.3677   107.1282    25.8565     7.1082     5.6715   -32.4854     8.3529     2.5658    -0.0114   -99999.0 
   1570.2000    99.3500   107.5702    21.5683     7.4616     5.8168   -32.6000     8.3300     2.5940    -0.0123   -99999.0 
   1570.4000    94.8638   102.9257    16.5601     7.3421     5.9954   -32.5042     8.3300     2.6026    -0.0071   -99999.0 
   1570.6000    80.9083    96.2547    13.6567     7.0463     6.1454   -32.4000     8.3300     2.5955    -0.0018   -99999.0 
   1570.8000    70.4548    93.8046    14.2907     6.8198     6.3111   -32.5689     8.3279     2.5908     0.0030   -99999.0 
   1571.0000    70.6144   100.5525    18.3793     6.5100     6.2821   -32.1752     8.3100     2.5861     0.0009   -99999.0 
   1571.2000    77.1886   110.6606    22.0286     5.9246     6.1096   -32.0728     8.3100     2.5740    -0.0078   -99999.0 
   1571.4000    82.5959   114.7624    23.5433     5.1413     5.8803   -32.2041     8.3300     2.5652    -0.0148   -99999.0 
   1571.6000    81.8293   113.7857    23.2559     4.4494     5.6248   -32.3000     8.3300     2.5708    -0.0085   -99999.0 
   1571.8000    80.1342   113.9138    24.0821     3.9717     5.4082   -32.4331     8.3300     2.5747    -0.0013   -99999.0 
   1572.0000    81.0732   115.2275    25.4363     3.6608     5.1918   -32.3045     8.3300     2.5730     0.0020   -99999.0 
   1572.2000    83.3350   117.8564    26.0701     3.4503     4.9772   -32.4290     8.3300     2.5727     0.0040   -99999.0 
   1572.4000    85.3638   122.7388    26.5600     3.2812     4.7842   -32.4398     8.3300     2.5702     0.0034   -99999.0 
   1572.6000    87.1891   124.7014    26.9167     3.1486     4.6136   -32.4000     8.3300     2.5672     0.0003   -99999.0 
   1572.8000    87.7546   123.1159    27.0316     3.0903     4.5243   -32.3681     8.3345     2.5636     0.0005   -99999.0 
   1573.0000    87.2224   123.1689    25.9287     3.1252     4.5082   -32.5461     8.3500     2.5525     0.0020   -99999.0 
   1573.2000    86.4741   124.0686    25.7141     3.2494     4.5170   -32.5852     8.3585     2.5376     0.0011   -99999.0 
   1573.4000    87.9953   123.8748    27.2859     3.4356     4.5551   -32.6164     8.3584     2.5330    -0.0013   -99999.0 
   1573.6000    90.0717   121.5374    28.6519     3.6118     4.6220   -32.7476     8.3548     2.5447    -0.0035   -99999.0 
   1573.8000    90.3056   118.1768    27.8287     3.7403     4.7178   -32.9577     8.3600     2.5646    -0.0024   -99999.0 
   1574.0000    87.8373   116.2970    25.5460     3.8373     4.8420   -33.3101     8.3500     2.5746     0.0030   -99999.0 
   1574.2000    84.4665   113.9559    24.6108     3.9628     4.9715   -33.4413     8.3417     2.5673     0.0174   -99999.0 
   1574.4000    82.2017   110.7267    25.7908     4.1160     5.0540   -33.7903     8.3518     2.5598     0.0308   -99999.0 
   1574.6000    84.0408   110.2787    27.5183     4.2466     5.1037   -34.5685     8.3589     2.5708     0.0276   -99999.0 
   1574.8000    87.6350   110.5043    23.2798     4.2491     5.0536   -36.8606     8.3230     2.5963     0.0138   -99999.0 
   1575.0000    84.5852   105.1567    16.3997     4.2235     4.9929   -39.2255     8.3100     2.6053     0.0040   -99999.0 
   1575.2000    78.1247    97.9278    12.6819     4.2455     4.9329   -42.1427     8.3295     2.5923    -0.0039   -99999.0 
   1575.4000    73.4677    97.5193    14.6644     4.2226     4.9221   -45.7909     8.3157     2.5714    -0.0074   -99999.0 
   1575.6000    72.4398    97.9490    16.2518     3.9903     5.0028   -48.9596     8.3300     2.5468    -0.0024   -99999.0 
   1575.8000    73.0736    89.7997    15.9857     3.6082     5.0350   -50.6945     8.3026     2.5134     0.0046   -99999.0 
