~VERSION INFORMATION                                                           
 VERS.           2.0: CWLS Log ASCII Standard - Version 2.0                    
 WRAP.            NO: One Line per Depth Step                                  
~WELL INFORMATION                                                              
#MNEM.UNIT              DATA            DESCRIPTION OF MNEMONIC                
#-----------            ----            -----------------------                
 STRT.MORRA           900.0000              :Start Depth                           
 STOP.M          2147.0000              :Stop  Depth                           
 STEP.M             0.2000              :Step                                  
 NULL.              -99999.0            :Null Value                            
 COMP.     PETROLEO BRASILEIRO S/A      :Company                               
 ORIG.     SIGEO EXPORTACAO PERFIL      :Origem dos dados                      
 WELL.     7FU  0128  AL                :Well                                  
 FLD.                                   :Field                                 
 LOC.                                   :Location                              
 STAT.                                  :State                                 
 SRVC.                                  :Service Company                       
 DATE.                                  :Log Date                              
 API.      081150370200                 :API Code                              
 X.              815480.800000          :Surface X                             
 Y.              8917272.700000         :Surface Y                             
 HZCS.           UTM                    :Horizontal Coordinate System          
 MC.               39 W                 :Meridiano Central
 LATI.             -9.782647            :Latitude                              
 LONG.            -36.124445            :Longitude                             
 GDAT.           SIRGAS2000             :Geodetic Datum                        
 EKB.M            27.0000               :Elevation Kelly Bushing               
 EGL.M            22.0000               :GROUND ELEVATION                      
~CURVE INFORMATION                                                             
 DEPT.M		                            :Measured Depth                        
 DT.us/ft                               :DELTA-T (ALSO CALLED SLOWNESS OR INTERVAL TRANSIT TIME) 
 GR.gAPI                                :GAMMA RAY 
 NPHI.%                                 :THERMAL NEUTRON POROSITY (ORIGINAL RATIO METHOD) IN SELECTED LITHOLOGY 
 ILD.ohm.m                              :INDUCTION DEEP RESISTIVITY 
 SN.ohm.m                               :SHORT NORMAL RESISTIVITY 
 SP.mV                                  :SPONTANEOUS POTENTIAL 
 CALI.in                                :CALIPER 
 RHOB.g/cm3                             :BULK DENSITY 
 DRHO.g/cm3                             :BULK DENSITIY CORRECTION 
 MSFL.ohm.m                             :MICRO-SPHERICALLY-FOCUSED RESISTIVITY 
~ASCII LOG DATA                                                                
# ...
   1147.0000    83.0000   103.3952    22.3834     4.7980     4.6110   -26.8528     9.7453     2.5012    -0.0017   -99999.0 
   1147.2000    83.0000   101.1012    22.8843     4.8563     4.6530   -27.0000     9.7485     2.5209     0.0048   -99999.0 
   1147.4000    83.0000   103.1998    23.2688     4.9254     4.7050   -27.2665     9.7400     2.5423     0.0179   -99999.0 
   1147.6000    83.0000   105.3884    23.5003     4.9958     4.7381   -27.1000     9.7240     2.5496     0.0238   -99999.0 
   1147.8000    83.0000   106.5295    23.8108     5.0353     4.7756   -27.1000     9.7400     2.5439     0.0204   -99999.0 
   1148.0000    83.0825   105.8456    23.8813     5.0562     4.8045   -27.1000     9.7565     2.5350     0.0139   -99999.0 
   1148.2000    83.5551   106.6248    24.1386     5.0466     4.8195   -27.2000     9.7455     2.5300     0.0089   -99999.0 
   1148.4000    83.8100   107.8355    24.3530     5.0414     4.8245   -27.1550     9.7980     2.5295     0.0094   -99999.0 
   1148.6000    83.1663   108.5087    23.7634     5.0262     4.8476   -27.0237     9.8200     2.5259     0.0133   -99999.0 
   1148.8000    82.0476   104.3651    23.1194     5.0110     4.8649   -26.9075     9.8700     2.5198     0.0151   -99999.0 
   1149.0000    81.3613   100.1076    22.0874     4.9915     4.8753   -26.9613     9.8700     2.5188     0.0178   -99999.0 
   1149.2000    81.7896   100.8003    21.6820     4.9614     4.8674   -27.0399     9.8770     2.5200     0.0204   -99999.0 
   1149.4000    82.7024   105.5030    21.8655     4.9313     4.8753   -27.0988     9.9000     2.5180     0.0190   -99999.0 
   1149.6000    82.9324   106.1713    22.5536     4.8869     4.8716   -27.0000     9.9000     2.5213     0.0180   -99999.0 
   1149.8000    83.0000   101.9626    23.3382     4.8498     4.8641   -27.0636     9.9000     2.5253     0.0193   -99999.0 
   1150.0000    83.0000    98.8371    23.5200     4.8312     4.8429   -27.1000     9.9000     2.5222     0.0228   -99999.0 
   1150.2000    83.0000    97.4864    22.7771     4.8476     4.8417   -27.2000     9.9026     2.5144     0.0230   -99999.0 
   1150.4000    83.0000    97.2476    21.7459     4.8769     4.8481   -27.3147     9.9215     2.5077     0.0166   -99999.0 
   1150.6000    83.0000    97.8535    21.6229     4.9266     4.8628   -27.4000     9.9300     2.5051     0.0096   -99999.0 
   1150.8000    83.0396    98.9344    22.4622     4.9773     4.8753   -27.6604     9.9300     2.5042     0.0070   -99999.0 
   1151.0000    83.3021   100.2420    23.5157     5.0353     4.8925   -27.6021     9.9300     2.5091     0.0080   -99999.0 
   1151.2000    83.4000   101.6510    23.6895     5.0371     4.9091   -27.8646     9.9135     2.5221     0.0115   -99999.0 
   1151.4000    83.1405   103.1732    23.3378     4.9765     4.9076   -28.0000     9.9300     2.5313     0.0140   -99999.0 
   1151.6000    83.7132   104.9930    23.3584     4.8479     4.8827   -28.0448     9.9300     2.5326     0.0131   -99999.0 
   1151.8000    84.4039   107.3245    23.5940     4.7035     4.8302   -28.2520     9.9148     2.5312     0.0097   -99999.0 
   1152.0000    84.8577   108.4918    23.6096     4.5641     4.7486   -28.4072     9.9300     2.5331     0.0082   -99999.0 
   1152.2000    86.1383   111.1618    23.7016     4.4341     4.6552   -28.6154     9.9300     2.5335     0.0129   -99999.0 
   1152.4000    87.2091   114.5700    22.2644     4.3028     4.5659   -28.8000     9.9300     2.5219     0.0160   -99999.0 
   1152.6000    84.9678   106.4594    18.5966     4.1675     4.5079   -28.8009     9.9500     2.5070     0.0130   -99999.0 
   1152.8000    80.4068    87.9041    15.8417     3.9667     4.4738   -28.9000     9.9500     2.5155     0.0093   -99999.0 
   1153.0000    77.4661    77.4762    16.6024     3.6269     4.4344   -28.9000     9.9500     2.5371     0.0132   -99999.0 
   1153.2000    79.0870    86.9193    19.6949     3.1882     4.3300   -29.2785     9.9311     2.5458     0.0216   -99999.0 
   1153.4000    81.7844    98.9812    22.8868     2.7672     4.1824   -29.6293     9.9000     2.5230     0.0321   -99999.0 
   1153.6000    82.9425   106.1284    24.2525     2.4511     3.9989   -30.1142     9.9000     2.4679     0.0409   -99999.0 
   1153.8000    83.8182   106.0731    24.4393     2.2536     3.7867   -30.7299     9.8823     2.3992     0.0430   -99999.0 
   1154.0000    86.1084    91.9178    23.1357     2.1698     3.6166   -30.6413     9.9398     2.3610     0.0366   -99999.0 
   1154.2000    89.2665    78.3287    21.9216     2.1730     3.4830   -30.2984    10.0105     2.3757     0.0285   -99999.0 
   1154.4000    90.5461    61.0300    20.4650     2.2551     3.4370   -29.9539    10.0646     2.4244     0.0260   -99999.0 
   1154.6000    88.4228    57.2113    19.3512     2.4287     3.4850   -29.7337    10.0647     2.4759     0.0332   -99999.0 
   1154.8000    83.7429    63.1072    18.5876     2.6848     3.5924   -29.2555     9.9989     2.4946     0.0414   -99999.0 
   1155.0000    80.5884    69.2052    18.8143     2.9837     3.7249   -28.9728     9.8918     2.4842     0.0367   -99999.0 
   1155.2000    80.0556    79.1588    19.7753     3.2621     3.8427   -28.9000     9.7744     2.4719     0.0268   -99999.0 
   1155.4000    81.1437    87.2225    20.1709     3.4484     3.9417   -28.8236     9.7229     2.4729     0.0251   -99999.0 
   1155.6000    81.9777    89.4138    21.0770     3.5188     4.0131   -28.6306     9.7878     2.4850     0.0319   -99999.0 
   1155.8000    82.3013    90.1409    22.0557     3.4993     4.0646   -28.6000     9.8001     2.5030     0.0430   -99999.0 
   1156.0000    82.5957    93.9357    23.1528     3.4805     4.0986   -28.6638     9.8132     2.4924     0.0497   -99999.0 
   1156.2000    82.9262    97.9454    23.8141     3.5272     4.1295   -28.8631     9.8074     2.4519     0.0446   -99999.0 
   1156.4000    83.0000    95.7848    24.0893     3.6261     4.1671   -28.8056     9.8000     2.4211     0.0316   -99999.0 
   1156.6000    83.5023    88.9632    23.6300     3.7289     4.1857   -28.6000     9.7523     2.4334     0.0220   -99999.0 
   1156.8000    83.9137    84.2823    23.7039     3.8434     4.2294   -28.5432     9.7300     2.4651     0.0190   -99999.0 
   1157.0000    84.0000    84.3276    23.8304     3.9773     4.2982   -28.5000     9.7564     2.4847     0.0190   -99999.0 
   1157.2000    83.9421    86.3330    24.0779     4.1547     4.4092   -28.3000     9.7600     2.4924     0.0204   -99999.0 
   1157.4000    83.5484    91.8296    24.3958     4.3061     4.4930   -28.3000     9.7600     2.5020     0.0240   -99999.0 
   1157.6000    83.3182   100.6007    24.3065     4.4130     4.5442   -28.4635     9.7600     2.5060     0.0285   -99999.0 
   1157.8000    83.4260   105.4755    24.4112     4.4825     4.5499   -28.4740     9.7400     2.4957     0.0299   -99999.0 
   1158.0000    83.6884   103.9605    24.6377     4.5371     4.5499   -28.2115     9.7400     2.4852     0.0277   -99999.0 
   1158.2000    83.8755    98.8828    24.6977     4.5922     4.5499   -28.1000     9.7249     2.4875     0.0245   -99999.0 
   1158.4000    83.8933    90.9354    24.9099     4.6488     4.5723   -28.2000     9.6800     2.5061     0.0322   -99999.0 
   1158.6000    83.7621    90.7804    24.3042     4.7154     4.6000   -28.2759     9.6724     2.5218     0.0547   -99999.0 
   1158.8000    83.0776    96.6259    23.0110     4.7424     4.6353   -28.4692     9.6600     2.5182     0.0612   -99999.0 
   1159.0000    81.2949   100.2286    21.0955     4.6661     4.6452   -28.6012     9.6198     2.5120     0.0460   -99999.0 
   1159.2000    79.5572    98.4501    19.7006     4.5074     4.6384   -28.9000     9.5927     2.5068     0.0367   -99999.0 
   1159.4000    77.8457    93.7010    18.8257     4.3588     4.5773   -29.0886     9.6263     2.4862     0.0354   -99999.0 
   1159.6000    77.3059    81.9650    18.2542     4.3158     4.5009   -29.2000     9.6018     2.4611     0.0312   -99999.0 
   1159.8000    77.1747    73.3735    18.2759     4.4135     4.4488   -29.2747     9.6000     2.4663     0.0293   -99999.0 
