~VERSION INFORMATION                                                           
 VERS.           2.0: CWLS Log ASCII Standard - Version 2.0                    
 WRAP.            NO: One Line per Depth Step                                  
~WELL INFORMATION                                                              
#MNEM.UNIT              DATA            DESCRIPTION OF MNEMONIC                
#-----------            ----            -----------------------                
 STRT.MORRA           900.0000              :Start Depth                           
 STOP.M          2147.0000              :Stop  Depth                           
 STEP.M             0.2000              :Step                                  
 NULL.              -99999.0            :Null Value                            
 COMP.     PETROLEO BRASILEIRO S/A      :Company                               
 ORIG.     SIGEO EXPORTACAO PERFIL      :Origem dos dados                      
 WELL.     7FU  0128  AL                :Well                                  
 FLD.                                   :Field                                 
 LOC.                                   :Location                              
 STAT.                                  :State                                 
 SRVC.                                  :Service Company                       
 DATE.                                  :Log Date                              
 API.      081150370200                 :API Code                              
 X.              815480.800000          :Surface X                             
 Y.              8917272.700000         :Surface Y                             
 HZCS.           UTM                    :Horizontal Coordinate System          
 MC.               39 W                 :Meridiano Central
 LATI.             -9.782647            :Latitude                              
 LONG.            -36.124445            :Longitude                             
 GDAT.           SIRGAS2000             :Geodetic Datum                        
 EKB.M            27.0000               :Elevation Kelly Bushing               
 EGL.M            22.0000               :GROUND ELEVATION                      
~CURVE INFORMATION                                                             
 DEPT.M		                            :Measured Depth                        
 DT.us/ft                               :DELTA-T (ALSO CALLED SLOWNESS OR INTERVAL TRANSIT TIME) 
 GR.gAPI                                :GAMMA RAY 
 NPHI.%                                 :THERMAL NEUTRON POROSITY (ORIGINAL RATIO METHOD) IN SELECTED LITHOLOGY 
 ILD.ohm.m                              :INDUCTION DEEP RESISTIVITY 
 SN.ohm.m                               :SHORT NORMAL RESISTIVITY 
 SP.mV                                  :SPONTANEOUS POTENTIAL 
 CALI.in                                :CALIPER 
 RHOB.g/cm3                             :BULK DENSITY 
 DRHO.g/cm3                             :BULK DENSITIY CORRECTION 
 MSFL.ohm.m                             :MICRO-SPHERICALLY-FOCUSED RESISTIVITY 
~ASCII LOG DATA                                                                
# ...
   1316.0000   100.3121   111.0941    37.5311     3.9121     4.2621   -30.6188     8.7800     2.1041     0.2046   -99999.0 
   1316.2000    98.2000   113.7230    34.8650     4.0598     4.2708   -30.8000     8.7700     2.1135     0.1850   -99999.0 
   1316.4000    97.3064   113.8208    29.4694     3.8673     4.2954   -30.4126     8.7600     2.1083     0.1744   -99999.0 
   1316.6000    94.7382   107.6638    25.8230     3.5918     4.2356   -29.4005     8.7400     2.0883     0.1865   -99999.0 
   1316.8000    91.8512    96.4856    24.5712     3.3680     4.0640   -27.9563     8.7313     2.0747     0.1987   -99999.0 
   1317.0000    90.3501    94.7251    25.7889     3.1488     4.0272   -27.8251     8.8849     2.0857     0.2032   -99999.0 
   1317.2000    96.2701   100.6308    30.0935     2.8618     4.0522   -27.7000     9.0825     2.1459     0.2184   -99999.0 
   1317.4000   102.0496   106.5593    33.4967     2.5503     3.9915   -27.7748     9.1200     2.2424     0.2442   -99999.0 
   1317.6000   100.9273   108.7194    33.7766     2.3407     3.8948   -27.9000     9.0925     2.2855     0.2441   -99999.0 
   1317.8000    98.1029   108.9660    31.8823     2.2337     3.6731   -28.1996     9.0301     2.2750     0.2040   -99999.0 
   1318.0000    97.5464   107.9527    30.5312     2.1885     3.5609   -28.2933     9.2033     2.3016     0.1615   -99999.0 
   1318.2000   101.8804   108.3449    33.6936     2.1461     3.6203   -28.3130     9.8339     2.3250     0.1433   -99999.0 
   1318.4000   106.0264   109.2588    36.3958     2.1239     3.5924   -28.4807     9.5941     2.2558     0.1363   -99999.0 
   1318.6000   108.8937   109.1431    36.5996     2.1816     3.4935   -28.8744    10.0999     2.0848     0.1136   -99999.0 
   1318.8000   113.0371   108.0941    37.9716     2.2679     3.4664   -29.3241    10.0796     1.9595     0.0583   -99999.0 
   1319.0000   112.3928   103.4519    40.3699     2.2817     3.4111   -29.9363     9.3069     2.0131     0.0001   -99999.0 
   1319.2000   102.8118    98.7882    40.6143     2.2181     3.3819   -30.8925     9.2623     2.2325     0.0194   -99999.0 
   1319.4000    98.2534    97.1053    36.4980     2.1727     3.2926   -31.6482     8.9299     2.2882     0.0869   -99999.0 
   1319.6000    94.2802   103.7296    30.9412     2.2514     3.2659   -32.4858     8.9400     2.1024     0.1130   -99999.0 
   1319.8000    92.8614   112.0729    28.9462     2.4307     3.3026   -33.3098     9.0591     1.9325     0.0844   -99999.0 
   1320.0000    99.8104   114.6121    29.4184     2.4491     3.4008   -34.7081     9.3400     1.9767     0.0410   -99999.0 
   1320.2000   105.3174   109.6118    25.8669     2.1599     3.5707   -36.6947     9.6088     2.2041     0.0347   -99999.0 
   1320.4000   102.3453    97.6764    20.1453     1.7162     3.5962   -39.0004     9.1400     2.4305     0.0628   -99999.0 
   1320.6000    89.5663    73.7352    14.4475     1.3561     3.3888   -41.2314     8.9726     2.4760     0.0738   -99999.0 
   1320.8000    72.3371    54.1911    11.5091     1.1190     3.2499   -43.3256     8.7822     2.4152     0.0577   -99999.0 
   1321.0000    68.7000    43.6438    11.0799     0.9533     2.9863   -45.0949     8.5506     2.3303     0.0331   -99999.0 
   1321.2000    74.7345    35.1026    12.3257     0.8297     2.5870   -45.4617     8.3137     2.2875     0.0211   -99999.0 
   1321.4000    82.1244    30.7076    14.6053     0.7345     2.3673   -45.5379     8.2100     2.2894     0.0202   -99999.0 
   1321.6000    87.1059    30.8245    16.6010     0.6741     2.2344   -45.5933     8.2100     2.3108     0.0229   -99999.0 
   1321.8000    86.6055    35.8882    17.2685     0.6505     2.2003   -45.2509     8.1953     2.3285     0.0270   -99999.0 
   1322.0000    84.9192    40.8342    17.6438     0.6488     2.2194   -45.1000     8.2337     2.3285     0.0300   -99999.0 
   1322.2000    83.4299    42.9876    17.7500     0.6527     2.2374   -45.0130     8.3087     2.3128     0.0256   -99999.0 
   1322.4000    83.7277    41.2738    17.8948     0.6497     2.2313   -45.2365     8.3064     2.2956     0.0208   -99999.0 
   1322.6000    84.3495    38.1682    18.5912     0.6326     2.1780   -45.5484     8.2900     2.2781     0.0205   -99999.0 
   1322.8000    84.5614    40.3224    20.2352     0.6055     2.1103   -45.7807     8.2900     2.2629     0.0210   -99999.0 
   1323.0000    85.1119    42.1513    21.5863     0.5723     2.0654   -46.0239     8.2900     2.2636     0.0208   -99999.0 
   1323.2000    85.1136    42.4867    20.3869     0.5394     2.0654   -46.0705     8.2986     2.2658     0.0181   -99999.0 
   1323.4000    84.4047    38.7914    18.4743     0.5119     2.0373   -45.6768     8.3398     2.2503     0.0163   -99999.0 
   1323.6000    83.9846    38.1573    18.4923     0.4915     1.9737   -45.1718     8.3500     2.2264     0.0182   -99999.0 
   1323.8000    86.4325    38.8262    21.2845     0.4803     1.9042   -44.6263     8.3537     2.2153     0.0235   -99999.0 
   1324.0000    90.0390    39.2068    23.7150     0.4836     1.8588   -44.3638     8.3600     2.2140     0.0267   -99999.0 
   1324.2000    92.5888    41.0301    24.8353     0.5127     1.8493   -43.5052     8.3699     2.2170     0.0260   -99999.0 
   1324.4000    93.3612    44.0269    25.8302     0.5901     1.8585   -42.1248     8.3731     2.2403     0.0172   -99999.0 
   1324.6000    93.6854    47.1857    25.2455     0.7193     1.9091   -40.7583     8.3800     2.3105     0.0073   -99999.0 
   1324.8000    93.5209    50.9963    23.9816     0.9076     1.9948   -38.9043     8.3893     2.4199     0.0069   -99999.0 
   1325.0000    92.4543    58.1543    24.7223     1.1871     2.1567   -37.0844     8.5080     2.4953     0.0073   -99999.0 
   1325.2000    92.0000    85.4442    27.0723     1.5786     2.4498   -35.7114     8.7311     2.5120     0.0039   -99999.0 
   1325.4000    91.8265   126.1082    27.9265     2.0796     2.8187   -34.9663     8.8094     2.5103     0.0073   -99999.0 
   1325.6000    89.8067   135.4235    25.0156     2.6267     3.0990   -34.1921     8.8200     2.5148     0.0183   -99999.0 
   1325.8000    85.0823   123.1653    21.8791     3.0698     3.2957   -33.5032     8.8298     2.5284     0.0245   -99999.0 
   1326.0000    80.5866   106.6600    20.2218     3.3154     3.4076   -33.1391     8.8400     2.5404     0.0218   -99999.0 
   1326.2000    78.4766   101.7679    19.7502     3.3407     3.4594   -33.0000     8.8612     2.5480     0.0133   -99999.0 
   1326.4000    78.6004   104.7617    20.4733     3.2195     3.4492   -33.0429     8.8700     2.5424     0.0076   -99999.0 
   1326.6000    79.8898   111.3439    21.8568     3.0427     3.4064   -33.4707     8.8700     2.5172     0.0107   -99999.0 
   1326.8000    80.7623   116.4991    22.2021     2.8566     3.3157   -34.1323     8.9011     2.4817     0.0168   -99999.0 
   1327.0000    79.5508   109.2253    20.8694     2.6713     3.2285   -34.7000     8.9127     2.4557     0.0108   -99999.0 
   1327.2000    77.7858    88.0998    19.7418     2.4919     3.1375   -34.6322     8.9204     2.4534     0.0070   -99999.0 
   1327.4000    77.1027    78.9778    19.8478     2.3398     3.0555   -34.5009     8.9894     2.4619     0.0159   -99999.0 
   1327.6000    77.8819    79.4519    19.7375     2.2454     2.9559   -34.7606     9.0200     2.4620     0.0239   -99999.0 
   1327.8000    78.0538    77.1173    18.4722     2.1913     2.8795   -34.7769     9.0262     2.4675     0.0303   -99999.0 
   1328.0000    76.9722    68.8841    16.3321     2.1638     2.8277   -34.7000     9.0393     2.4775     0.0404   -99999.0 
   1328.2000    76.2480    66.0170    14.8600     2.1651     2.7407   -34.7240     9.0448     2.4662     0.0428   -99999.0 
   1328.4000    76.7867    65.7631    15.5617     2.1782     2.6739   -34.8000     9.0600     2.4507     0.0351   -99999.0 
   1328.6000    78.3108    67.1879    17.5137     2.1784     2.6388   -34.4541     9.0600     2.4541     0.0268   -99999.0 
   1328.8000    79.6646    68.9269    18.8851     2.1542     2.6242   -34.0823     9.0600     2.4691     0.0245   -99999.0 
